[
  {
    "stationName": "Fenton Manor",
    "crsCode": "FMA",
    "tiplocCode": "FENTON",
    "lat": 0.0,
    "long": 0.0
  },
  {
    "stationName": "Bucknall & Northwood",
    "crsCode": "BNN",
    "tiplocCode": "BUKNAL",
    "lat": 0.0,
    "long": 0.0
  },
  {
    "stationName": "Stoke South",
    "crsCode": "SSH",
    "tiplocCode": "STOKSTH",
    "lat": 0.0,
    "long": 0.0
  },
  {
    "stationName": "Milton",
    "crsCode": "MIP",
    "tiplocCode": "MLTON",
    "lat": 0.0,
    "long": 0.0
  },
  {
    "stationName": "Endon",
    "crsCode": "END",
    "tiplocCode": "ENDON",
    "lat": 0.0,
    "long": 0.0
  },
  {
    "stationName": "Stockton Brook",
    "crsCode": "SBN",
    "tiplocCode": "STKTBRK",
    "lat": 0.0,
    "long": 0.0
  },
  {
    "stationName": "Skelmersdale",
    "crsCode": "SKD",
    "tiplocCode": "SKLMDLE",
    "lat": 0.0,
    "long": 0.0
  },
  {
    "stationName": "Capel Curig Bryn-Llys",
    "crsCode": "CAP",
    "tiplocCode": "CAPCSBC",
    "lat": 0.0,
    "long": 0.0
  },
  {
    "stationName": "Mold Bus Station",
    "crsCode": "MOL",
    "tiplocCode": "MOLBS",
    "lat": 0.0,
    "long": 0.0
  },
  {
    "stationName": "Ruthin War Memorial",
    "crsCode": "RTI",
    "tiplocCode": "RUTINMS",
    "lat": 0.0,
    "long": 0.0
  },
  {
    "stationName": "Bletchley High Level",
    "crsCode": "BLU",
    "tiplocCode": "BLTCHHL",
    "lat": 0.0,
    "long": 0.0
  },
  {
    "stationName": "Liverpool Baltic",
    "crsCode": "LVB",
    "tiplocCode": "LVRPBAL",
    "lat": 0.0,
    "long": 0.0
  },
  {
    "stationName": "Duesseldorf Hbf",
    "crsCode": "DUS",
    "tiplocCode": "DUSSDRF",
    "lat": 0.0,
    "long": 0.0
  },
  {
    "stationName": "Essen Hbf",
    "crsCode": "ESS",
    "tiplocCode": "ESSNHBF",
    "lat": 0.0,
    "long": 0.0
  },
  {
    "stationName": "Bochum Hbf",
    "crsCode": "BUM",
    "tiplocCode": "BOCHUM",
    "lat": 0.0,
    "long": 0.0
  },
  {
    "stationName": "Dortmund Hbf",
    "crsCode": "DTM",
    "tiplocCode": "DORTMND",
    "lat": 0.0,
    "long": 0.0
  },
  {
    "stationName": "Bonn Hbf",
    "crsCode": "BNJ",
    "tiplocCode": "BONNHBF",
    "lat": 0.0,
    "long": 0.0
  },
  {
    "stationName": "Koblenz Hbf",
    "crsCode": "KBZ",
    "tiplocCode": "KOBLENZ",
    "lat": 0.0,
    "long": 0.0
  },
  {
    "stationName": "Frankfurt (Main) Hbf",
    "crsCode": "FRA",
    "tiplocCode": "FRNKFRT",
    "lat": 0.0,
    "long": 0.0
  },
  {
    "stationName": "Mainz Hbf",
    "crsCode": "MNZ",
    "tiplocCode": "MINZHBF",
    "lat": 0.0,
    "long": 0.0
  },
  {
    "stationName": "Rotterdam Cs",
    "crsCode": "ROT",
    "tiplocCode": "ROTTCS",
    "lat": 0.0,
    "long": 0.0
  },
  {
    "stationName": "Den Haag Hs",
    "crsCode": "DHS",
    "tiplocCode": "DNHAAG",
    "lat": 0.0,
    "long": 0.0
  },
  {
    "stationName": "Burnham Market",
    "crsCode": "BMK",
    "tiplocCode": "BRNAMKT",
    "lat": 0.0,
    "long": 0.0
  },
  {
    "stationName": "Wells Next The Sea",
    "crsCode": "WEN",
    "tiplocCode": "WENXTSE",
    "lat": 0.0,
    "long": 0.0
  },
  {
    "stationName": "Birkenhead 12 Quays",
    "crsCode": "BKI",
    "tiplocCode": "BRKNIOM",
    "lat": 0.0,
    "long": 0.0
  },
  {
    "stationName": "Cameron Bridge",
    "crsCode": "CBX",
    "tiplocCode": "CMRNBDG",
    "lat": 56.190029,
    "long": -3.0457235
  },
  {
    "stationName": "White Rose (Leeds)",
    "crsCode": "WRO",
    "tiplocCode": "WHTRSE",
    "lat": 0.0,
    "long": 0.0
  },
  {
    "stationName": "Inverness Airport Bus Stn",
    "crsCode": "INB",
    "tiplocCode": "IVRNABS",
    "lat": 0.0,
    "long": 0.0
  },
  {
    "stationName": "Hawes Market Place",
    "crsCode": "HMK",
    "tiplocCode": "HAWESMP",
    "lat": 0.0,
    "long": 0.0
  },
  {
    "stationName": "Penzance Quay",
    "crsCode": "PNQ",
    "tiplocCode": "PNZQUAY",
    "lat": 0.0,
    "long": 0.0
  },
  {
    "stationName": "Colchester Br",
    "crsCode": "CCL",
    "tiplocCode": "CATZ114",
    "lat": 0.0,
    "long": 0.0
  },
  {
    "stationName": "Catford Br",
    "crsCode": "CAF",
    "tiplocCode": "CATZ115",
    "lat": 0.0,
    "long": 0.0
  },
  {
    "stationName": "Edenbridge Br",
    "crsCode": "EDE",
    "tiplocCode": "CATZ116",
    "lat": 0.0,
    "long": 0.0
  },
  {
    "stationName": "Farnborough Br",
    "crsCode": "FBO",
    "tiplocCode": "CATZ117",
    "lat": 0.0,
    "long": 0.0
  },
  {
    "stationName": "Penge Br",
    "crsCode": "PNG",
    "tiplocCode": "CATZ118",
    "lat": 0.0,
    "long": 0.0
  },
  {
    "stationName": "Enfield Br",
    "crsCode": "EFI",
    "tiplocCode": "CATZ119",
    "lat": 0.0,
    "long": 0.0
  },
  {
    "stationName": "West Hampstead Br",
    "crsCode": "WSD",
    "tiplocCode": "CATZ120",
    "lat": 0.0,
    "long": 0.0
  },
  {
    "stationName": "Pontefract Br",
    "crsCode": "POF",
    "tiplocCode": "CATZ121",
    "lat": 0.0,
    "long": 0.0
  },
  {
    "stationName": "St. Marys Quay",
    "crsCode": "SMQ",
    "tiplocCode": "STMAQUY",
    "lat": 0.0,
    "long": 0.0
  },
  {
    "stationName": "Thorne Br",
    "crsCode": "THR",
    "tiplocCode": "CATZ122",
    "lat": 0.0,
    "long": 0.0
  },
  {
    "stationName": "Inverness Bus Station",
    "crsCode": "IBS",
    "tiplocCode": "IVRNBUS",
    "lat": 0.0,
    "long": 0.0
  },
  {
    "stationName": "Aberaeron Alban Square",
    "crsCode": "AER",
    "tiplocCode": "ABARASQ",
    "lat": 0.0,
    "long": 0.0
  },
  {
    "stationName": "Aboyne",
    "crsCode": "ABO",
    "tiplocCode": "",
    "lat": 0.0,
    "long": 0.0
  },
  {
    "stationName": "Alston",
    "crsCode": "ALS",
    "tiplocCode": "",
    "lat": 54.8146005,
    "long": -2.4420114
  },
  {
    "stationName": "Ballater",
    "crsCode": "BLR",
    "tiplocCode": "",
    "lat": 0.0,
    "long": 0.0
  },
  {
    "stationName": "Blaeencwm",
    "crsCode": "BCW",
    "tiplocCode": "BLENCWM",
    "lat": 0.0,
    "long": 0.0
  },
  {
    "stationName": "Charmouth (Bus Location)",
    "crsCode": "CMT",
    "tiplocCode": "",
    "lat": 0.0,
    "long": 0.0
  },
  {
    "stationName": "Braemar",
    "crsCode": "BAE",
    "tiplocCode": "",
    "lat": 0.0,
    "long": 0.0
  },
  {
    "stationName": "Brecon Bus Interchange",
    "crsCode": "BEO",
    "tiplocCode": "MERTBCN",
    "lat": 0.0,
    "long": 0.0
  },
  {
    "stationName": "Bridport",
    "crsCode": "BPO",
    "tiplocCode": "",
    "lat": 0.0,
    "long": 0.0
  },
  {
    "stationName": "Broadway",
    "crsCode": "BWY",
    "tiplocCode": "",
    "lat": 52.043006,
    "long": -1.8720529
  },
  {
    "stationName": "Cardigan Finches Square",
    "crsCode": "CAI",
    "tiplocCode": "CARGFS",
    "lat": 0.0,
    "long": 0.0
  },
  {
    "stationName": "Chard",
    "crsCode": "CHA",
    "tiplocCode": "",
    "lat": 0.0,
    "long": 0.0
  },
  {
    "stationName": "Cirencester",
    "crsCode": "CCR",
    "tiplocCode": "",
    "lat": 0.0,
    "long": 0.0
  },
  {
    "stationName": "Daventry",
    "crsCode": "DVR",
    "tiplocCode": "",
    "lat": 0.0,
    "long": 0.0
  },
  {
    "stationName": "Gosport Bus",
    "crsCode": "GOP",
    "tiplocCode": "GOSTBUS",
    "lat": 0.0,
    "long": 0.0
  },
  {
    "stationName": "Grantown-On-Spey",
    "crsCode": "GSP",
    "tiplocCode": "",
    "lat": 0.0,
    "long": 0.0
  },
  {
    "stationName": "Kelso",
    "crsCode": "KES",
    "tiplocCode": "",
    "lat": 0.0,
    "long": 0.0
  },
  {
    "stationName": "Kingsbridge (Bus)",
    "crsCode": "KBS",
    "tiplocCode": "KNGBRDG",
    "lat": 0.0,
    "long": 0.0
  },
  {
    "stationName": "Lampeter The Black Lion",
    "crsCode": "LTR",
    "tiplocCode": "LMPTBLL",
    "lat": 0.0,
    "long": 0.0
  },
  {
    "stationName": "Maerdy",
    "crsCode": "MDY",
    "tiplocCode": "MAERDY",
    "lat": 0.0,
    "long": 0.0
  },
  {
    "stationName": "Mullingar",
    "crsCode": "MUL",
    "tiplocCode": "",
    "lat": 53.5229058,
    "long": -7.345688
  },
  {
    "stationName": "Newcastle Emlyn Cattle Mkt",
    "crsCode": "NEY",
    "tiplocCode": "NEWEMLN",
    "lat": 0.0,
    "long": 0.0
  },
  {
    "stationName": "Athenry",
    "crsCode": "ATR",
    "tiplocCode": "",
    "lat": 0.0,
    "long": 0.0
  },
  {
    "stationName": "Lifton (Bus)",
    "crsCode": "LAA",
    "tiplocCode": "LIFTON",
    "lat": 0.0,
    "long": 0.0
  },
  {
    "stationName": "Castleconnell",
    "crsCode": "CCN",
    "tiplocCode": "",
    "lat": 0.0,
    "long": 0.0
  },
  {
    "stationName": "Castlerea",
    "crsCode": "CSE",
    "tiplocCode": "",
    "lat": 0.0,
    "long": 0.0
  },
  {
    "stationName": "Charleville",
    "crsCode": "CHJ",
    "tiplocCode": "",
    "lat": 0.0,
    "long": 0.0
  },
  {
    "stationName": "Clara",
    "crsCode": "CLQ",
    "tiplocCode": "",
    "lat": 53.3398163,
    "long": -7.616368
  },
  {
    "stationName": "Cloughjordon",
    "crsCode": "CLZ",
    "tiplocCode": "",
    "lat": 0.0,
    "long": 0.0
  },
  {
    "stationName": "Cobh",
    "crsCode": "COQ",
    "tiplocCode": "",
    "lat": 0.0,
    "long": 0.0
  },
  {
    "stationName": "Collooney",
    "crsCode": "COU",
    "tiplocCode": "",
    "lat": 0.0,
    "long": 0.0
  },
  {
    "stationName": "Dromod",
    "crsCode": "DMD",
    "tiplocCode": "",
    "lat": 53.8590965,
    "long": -7.9163715
  },
  {
    "stationName": "Dublin Pearse",
    "crsCode": "DBP",
    "tiplocCode": "",
    "lat": 53.3433347,
    "long": -6.2484634
  },
  {
    "stationName": "Enfield (Ireland)",
    "crsCode": "EFD",
    "tiplocCode": "",
    "lat": 0.0,
    "long": 0.0
  },
  {
    "stationName": "Ennis",
    "crsCode": "ENN",
    "tiplocCode": "",
    "lat": 0.0,
    "long": 0.0
  },
  {
    "stationName": "Ardrahan",
    "crsCode": "XAG",
    "tiplocCode": "CATZ",
    "lat": 0.0,
    "long": 0.0
  },
  {
    "stationName": "Craughwell",
    "crsCode": "XCD",
    "tiplocCode": "CATZ001",
    "lat": 0.0,
    "long": 0.0
  },
  {
    "stationName": "Gort",
    "crsCode": "XGR",
    "tiplocCode": "CATZ003",
    "lat": 0.0,
    "long": 0.0
  },
  {
    "stationName": "Farranfore",
    "crsCode": "FAR",
    "tiplocCode": "",
    "lat": 0.0,
    "long": 0.0
  },
  {
    "stationName": "Fota",
    "crsCode": "FOT",
    "tiplocCode": "",
    "lat": 0.0,
    "long": 0.0
  },
  {
    "stationName": "Antrim",
    "crsCode": "ANM",
    "tiplocCode": "CATZ113",
    "lat": 54.7180968,
    "long": -6.2114756
  },
  {
    "stationName": "Athlone",
    "crsCode": "ATO",
    "tiplocCode": "",
    "lat": 53.4269001,
    "long": -7.9357621
  },
  {
    "stationName": "Ballymena",
    "crsCode": "BMA",
    "tiplocCode": "",
    "lat": 54.8640702,
    "long": -6.2846354
  },
  {
    "stationName": "Athy",
    "crsCode": "ATY",
    "tiplocCode": "",
    "lat": 52.9922877,
    "long": -6.9764756
  },
  {
    "stationName": "Attymon",
    "crsCode": "ATM",
    "tiplocCode": "",
    "lat": 0.0,
    "long": 0.0
  },
  {
    "stationName": "Claremorris",
    "crsCode": "CMI",
    "tiplocCode": "",
    "lat": 0.0,
    "long": 0.0
  },
  {
    "stationName": "Coleraine",
    "crsCode": "CEI",
    "tiplocCode": "",
    "lat": 55.1339557,
    "long": -6.6626658
  },
  {
    "stationName": "Drogheda",
    "crsCode": "DRA",
    "tiplocCode": "",
    "lat": 0.0,
    "long": 0.0
  },
  {
    "stationName": "Dundalk",
    "crsCode": "DUK",
    "tiplocCode": "",
    "lat": 0.0,
    "long": 0.0
  },
  {
    "stationName": "Ferndale",
    "crsCode": "FED",
    "tiplocCode": "FERDALE",
    "lat": 0.0,
    "long": 0.0
  },
  {
    "stationName": "Ilfracombe (Bus)",
    "crsCode": "IHS",
    "tiplocCode": "IFRCMB",
    "lat": 0.0,
    "long": 0.0
  },
  {
    "stationName": "Kildare",
    "crsCode": "KDR",
    "tiplocCode": "",
    "lat": 53.1628057,
    "long": -6.9080483
  },
  {
    "stationName": "Kilkenny",
    "crsCode": "KNY",
    "tiplocCode": "",
    "lat": 0.0,
    "long": 0.0
  },
  {
    "stationName": "Lisburn",
    "crsCode": "LBN",
    "tiplocCode": "",
    "lat": 54.5139104,
    "long": -6.0453218
  },
  {
    "stationName": "Balbriggan",
    "crsCode": "BAP",
    "tiplocCode": "",
    "lat": 53.6118769,
    "long": -6.1823282
  },
  {
    "stationName": "Newry",
    "crsCode": "NWY",
    "tiplocCode": "",
    "lat": 54.1887352,
    "long": -6.3628351
  },
  {
    "stationName": "Portadown",
    "crsCode": "PTN",
    "tiplocCode": "",
    "lat": 54.4250835,
    "long": -6.4454404
  },
  {
    "stationName": "Portarlington",
    "crsCode": "PRO",
    "tiplocCode": "",
    "lat": 53.1461327,
    "long": -7.1815122
  },
  {
    "stationName": "Monasterevin",
    "crsCode": "XMV",
    "tiplocCode": "CATZ005",
    "lat": 53.1454804,
    "long": -7.0637543
  },
  {
    "stationName": "Portlaoise",
    "crsCode": "PTO",
    "tiplocCode": "",
    "lat": 53.0370118,
    "long": -7.3013145
  },
  {
    "stationName": "Ballina",
    "crsCode": "BAX",
    "tiplocCode": "",
    "lat": 0.0,
    "long": 0.0
  },
  {
    "stationName": "Sligo",
    "crsCode": "SLI",
    "tiplocCode": "",
    "lat": 0.0,
    "long": 0.0
  },
  {
    "stationName": "Bodmin Mount Folly",
    "crsCode": "BDF",
    "tiplocCode": "BODMNMF",
    "lat": 0.0,
    "long": 0.0
  },
  {
    "stationName": "Bude (Bus)",
    "crsCode": "BUA",
    "tiplocCode": "BUDESTD",
    "lat": 0.0,
    "long": 0.0
  },
  {
    "stationName": "East Cowes",
    "crsCode": "ECW",
    "tiplocCode": "COWESE",
    "lat": 0.0,
    "long": 0.0
  },
  {
    "stationName": "Haworth",
    "crsCode": "HWT",
    "tiplocCode": "",
    "lat": 53.8313183,
    "long": -1.9488416
  },
  {
    "stationName": "Hull Bus Stn",
    "crsCode": "HUU",
    "tiplocCode": "HULLBS",
    "lat": 0.0,
    "long": 0.0
  },
  {
    "stationName": "Lyme Regis Po",
    "crsCode": "LPO",
    "tiplocCode": "",
    "lat": 0.0,
    "long": 0.0
  },
  {
    "stationName": "Lyme Regis Square",
    "crsCode": "LSQ",
    "tiplocCode": "",
    "lat": 0.0,
    "long": 0.0
  },
  {
    "stationName": "Newport (Iow)",
    "crsCode": "NPT",
    "tiplocCode": "NWPRBUS",
    "lat": 0.0,
    "long": 0.0
  },
  {
    "stationName": "Ottery St Mary",
    "crsCode": "OSM",
    "tiplocCode": "OTTERBS",
    "lat": 0.0,
    "long": 0.0
  },
  {
    "stationName": "Padstow",
    "crsCode": "PDT",
    "tiplocCode": "PDSTWBT",
    "lat": 0.0,
    "long": 0.0
  },
  {
    "stationName": "Buckfastleigh",
    "crsCode": "BFL",
    "tiplocCode": "BUCFAST",
    "lat": 50.4828098,
    "long": -3.7686403
  },
  {
    "stationName": "Dublin Ferryport",
    "crsCode": "DFP",
    "tiplocCode": "DUBLINF",
    "lat": 0.0,
    "long": 0.0
  },
  {
    "stationName": "Kingswear",
    "crsCode": "KWR",
    "tiplocCode": "DMTHKWR",
    "lat": 50.34888,
    "long": -3.5723937
  },
  {
    "stationName": "Limerick Jcn",
    "crsCode": "LJN",
    "tiplocCode": "LIMERCJ",
    "lat": 0.0,
    "long": 0.0
  },
  {
    "stationName": "Portree",
    "crsCode": "PEE",
    "tiplocCode": "PORTREE",
    "lat": 0.0,
    "long": 0.0
  },
  {
    "stationName": "Scrabster",
    "crsCode": "SCB",
    "tiplocCode": "SCRBSTR",
    "lat": 0.0,
    "long": 0.0
  },
  {
    "stationName": "Seaton Sea Front",
    "crsCode": "SSF",
    "tiplocCode": "SEATNSF",
    "lat": 0.0,
    "long": 0.0
  },
  {
    "stationName": "Shaftesbury Town Hall",
    "crsCode": "SWH",
    "tiplocCode": "SHAFTTH",
    "lat": 0.0,
    "long": 0.0
  },
  {
    "stationName": "Sidmouth Triangle",
    "crsCode": "SDT",
    "tiplocCode": "",
    "lat": 0.0,
    "long": 0.0
  },
  {
    "stationName": "Southampton E Docks",
    "crsCode": "SEK",
    "tiplocCode": "",
    "lat": 0.0,
    "long": 0.0
  },
  {
    "stationName": "Southampton W Docks",
    "crsCode": "SPW",
    "tiplocCode": "",
    "lat": 0.0,
    "long": 0.0
  },
  {
    "stationName": "Southsea Hoverport",
    "crsCode": "SHV",
    "tiplocCode": "SSEACLE",
    "lat": 0.0,
    "long": 0.0
  },
  {
    "stationName": "Ballinasloe",
    "crsCode": "BSG",
    "tiplocCode": "",
    "lat": 0.0,
    "long": 0.0
  },
  {
    "stationName": "Tetbury",
    "crsCode": "TTY",
    "tiplocCode": "",
    "lat": 0.0,
    "long": 0.0
  },
  {
    "stationName": "East Linton",
    "crsCode": "ELT",
    "tiplocCode": "ELINTN",
    "lat": 55.9871488,
    "long": -2.6628247
  },
  {
    "stationName": "Tynewydd",
    "crsCode": "TNW",
    "tiplocCode": "",
    "lat": 0.0,
    "long": 0.0
  },
  {
    "stationName": "Ventnor",
    "crsCode": "VTN",
    "tiplocCode": "VNTNRBS",
    "lat": 0.0,
    "long": 0.0
  },
  {
    "stationName": "Wadebridge",
    "crsCode": "WBE",
    "tiplocCode": "WDBDGBS",
    "lat": 0.0,
    "long": 0.0
  },
  {
    "stationName": "Wallsend",
    "crsCode": "WLL",
    "tiplocCode": "",
    "lat": 54.9895984,
    "long": -1.5327361
  },
  {
    "stationName": "West Cowes",
    "crsCode": "WTW",
    "tiplocCode": "COWESW",
    "lat": 0.0,
    "long": 0.0
  },
  {
    "stationName": "Yeovil Bus Stn",
    "crsCode": "YVB",
    "tiplocCode": "YOVILBS",
    "lat": 0.0,
    "long": 0.0
  },
  {
    "stationName": "Energlyn & Churchill Park",
    "crsCode": "ECP",
    "tiplocCode": "ERGNCHP",
    "lat": 51.584548,
    "long": -3.2290773
  },
  {
    "stationName": "Thurles",
    "crsCode": "TUS",
    "tiplocCode": "",
    "lat": 52.6766937,
    "long": -7.8219058
  },
  {
    "stationName": "Tipperary",
    "crsCode": "TPY",
    "tiplocCode": "",
    "lat": 0.0,
    "long": 0.0
  },
  {
    "stationName": "Tylorstown",
    "crsCode": "TYR",
    "tiplocCode": "TYLORTN",
    "lat": 0.0,
    "long": 0.0
  },
  {
    "stationName": "Westport",
    "crsCode": "WPT",
    "tiplocCode": "",
    "lat": 0.0,
    "long": 0.0
  },
  {
    "stationName": "Ballybrophy",
    "crsCode": "BBY",
    "tiplocCode": "",
    "lat": 52.9001559,
    "long": -7.6025345
  },
  {
    "stationName": "Ballycullane",
    "crsCode": "BAQ",
    "tiplocCode": "",
    "lat": 0.0,
    "long": 0.0
  },
  {
    "stationName": "Ballyhaunis",
    "crsCode": "BHN",
    "tiplocCode": "",
    "lat": 0.0,
    "long": 0.0
  },
  {
    "stationName": "Ballymote",
    "crsCode": "BAO",
    "tiplocCode": "",
    "lat": 0.0,
    "long": 0.0
  },
  {
    "stationName": "Banteer",
    "crsCode": "BNU",
    "tiplocCode": "",
    "lat": 0.0,
    "long": 0.0
  },
  {
    "stationName": "Birdhill",
    "crsCode": "BIH",
    "tiplocCode": "",
    "lat": 0.0,
    "long": 0.0
  },
  {
    "stationName": "St Davids New Street",
    "crsCode": "SDD",
    "tiplocCode": "STDVCH",
    "lat": 0.0,
    "long": 0.0
  },
  {
    "stationName": "Newquay Cardiganshire",
    "crsCode": "NQC",
    "tiplocCode": "",
    "lat": 0.0,
    "long": 0.0
  },
  {
    "stationName": "Dover East Docks",
    "crsCode": "DED",
    "tiplocCode": "DOVERED",
    "lat": 0.0,
    "long": 0.0
  },
  {
    "stationName": "Dover W. Dks Intl",
    "crsCode": "DWI",
    "tiplocCode": "",
    "lat": 0.0,
    "long": 0.0
  },
  {
    "stationName": "Boyle",
    "crsCode": "BOQ",
    "tiplocCode": "",
    "lat": 0.0,
    "long": 0.0
  },
  {
    "stationName": "Bridgetown",
    "crsCode": "BRJ",
    "tiplocCode": "",
    "lat": 0.0,
    "long": 0.0
  },
  {
    "stationName": "Cahir",
    "crsCode": "CAH",
    "tiplocCode": "",
    "lat": 52.3779467,
    "long": -7.922583
  },
  {
    "stationName": "Carlow",
    "crsCode": "CAW",
    "tiplocCode": "",
    "lat": 52.8410587,
    "long": -6.9221056
  },
  {
    "stationName": "Carrick-On-Shannon",
    "crsCode": "CKA",
    "tiplocCode": "",
    "lat": 0.0,
    "long": 0.0
  },
  {
    "stationName": "Castlebar",
    "crsCode": "CLB",
    "tiplocCode": "",
    "lat": 0.0,
    "long": 0.0
  },
  {
    "stationName": "Cork Ringaskiddy Ferryport",
    "crsCode": "COF",
    "tiplocCode": "CORKRNG",
    "lat": 0.0,
    "long": 0.0
  },
  {
    "stationName": "Reading Br",
    "crsCode": "REA",
    "tiplocCode": "CATZ123",
    "lat": 0.0,
    "long": 0.0
  },
  {
    "stationName": "Helensburgh Br",
    "crsCode": "HLH",
    "tiplocCode": "CATZ124",
    "lat": 0.0,
    "long": 0.0
  },
  {
    "stationName": "Bedford Br",
    "crsCode": "BFO",
    "tiplocCode": "CATZ125",
    "lat": 0.0,
    "long": 0.0
  },
  {
    "stationName": "Southend Br",
    "crsCode": "SSN",
    "tiplocCode": "CATZ126",
    "lat": 0.0,
    "long": 0.0
  },
  {
    "stationName": "Hertford Br",
    "crsCode": "HRT",
    "tiplocCode": "CATZ127",
    "lat": 0.0,
    "long": 0.0
  },
  {
    "stationName": "Gainsborough Br",
    "crsCode": "GAI",
    "tiplocCode": "CATZ128",
    "lat": 0.0,
    "long": 0.0
  },
  {
    "stationName": "Dorking Br",
    "crsCode": "DRK",
    "tiplocCode": "CATZ129",
    "lat": 0.0,
    "long": 0.0
  },
  {
    "stationName": "Birmingham Br",
    "crsCode": "BIR",
    "tiplocCode": "CATZ130",
    "lat": 0.0,
    "long": 0.0
  },
  {
    "stationName": "Bradford Br",
    "crsCode": "BFS",
    "tiplocCode": "CATZ131",
    "lat": 0.0,
    "long": 0.0
  },
  {
    "stationName": "Headbolt Lane",
    "crsCode": "HBL",
    "tiplocCode": "HBOLTN",
    "lat": 53.4915834,
    "long": -2.8837132
  },
  {
    "stationName": "Canterbury Br",
    "crsCode": "CTY",
    "tiplocCode": "CATZ132",
    "lat": 0.0,
    "long": 0.0
  },
  {
    "stationName": "Dorchester Br",
    "crsCode": "DRC",
    "tiplocCode": "CATZ133",
    "lat": 0.0,
    "long": 0.0
  },
  {
    "stationName": "Falkirk Br",
    "crsCode": "FLK",
    "tiplocCode": "CATZ134",
    "lat": 0.0,
    "long": 0.0
  },
  {
    "stationName": "Folkestone Br",
    "crsCode": "FOL",
    "tiplocCode": "CATZ135",
    "lat": 0.0,
    "long": 0.0
  },
  {
    "stationName": "Glasgow Br",
    "crsCode": "GLW",
    "tiplocCode": "CATZ136",
    "lat": 0.0,
    "long": 0.0
  },
  {
    "stationName": "Liverpool Br",
    "crsCode": "LVP",
    "tiplocCode": "CATZ137",
    "lat": 0.0,
    "long": 0.0
  },
  {
    "stationName": "Maidstone Br",
    "crsCode": "MAD",
    "tiplocCode": "CATZ138",
    "lat": 0.0,
    "long": 0.0
  },
  {
    "stationName": "Manchester Br",
    "crsCode": "MCR",
    "tiplocCode": "CATZ139",
    "lat": 0.0,
    "long": 0.0
  },
  {
    "stationName": "Portsmouth Br",
    "crsCode": "POS",
    "tiplocCode": "CATZ140",
    "lat": 0.0,
    "long": 0.0
  },
  {
    "stationName": "Newark Castle Or Northgate",
    "crsCode": "NWK",
    "tiplocCode": "CATZ141",
    "lat": 0.0,
    "long": 0.0
  },
  {
    "stationName": "Leven",
    "crsCode": "LEV",
    "tiplocCode": "LEVEN",
    "lat": 56.19246,
    "long": -3.0022502
  },
  {
    "stationName": "Tyndrum Br",
    "crsCode": "TYM",
    "tiplocCode": "CATZ142",
    "lat": 0.0,
    "long": 0.0
  },
  {
    "stationName": "Wakefield Br",
    "crsCode": "WAK",
    "tiplocCode": "CATZ143",
    "lat": 0.0,
    "long": 0.0
  },
  {
    "stationName": "Warrington Br",
    "crsCode": "WRG",
    "tiplocCode": "CATZ144",
    "lat": 0.0,
    "long": 0.0
  },
  {
    "stationName": "Wigan Br",
    "crsCode": "WIG",
    "tiplocCode": "CATZ145",
    "lat": 0.0,
    "long": 0.0
  },
  {
    "stationName": "Worcester Br",
    "crsCode": "WRC",
    "tiplocCode": "CATZ146",
    "lat": 0.0,
    "long": 0.0
  },
  {
    "stationName": "Croydon Br",
    "crsCode": "CYD",
    "tiplocCode": "CATZ147",
    "lat": 0.0,
    "long": 0.0
  },
  {
    "stationName": "Manctr Ctl Zone",
    "crsCode": "MCZ",
    "tiplocCode": "",
    "lat": 0.0,
    "long": 0.0
  },
  {
    "stationName": "Darlaston",
    "crsCode": "DAS",
    "tiplocCode": "DRLSTN",
    "lat": 52.5757578,
    "long": -2.0204169
  },
  {
    "stationName": "Inverness Airport",
    "crsCode": "IVA",
    "tiplocCode": "IVRNAIR",
    "lat": 57.5333636,
    "long": -4.055475
  },
  {
    "stationName": "Belfairs Bus",
    "crsCode": "XBX",
    "tiplocCode": "BLFAIRS",
    "lat": 0.0,
    "long": 0.0
  },
  {
    "stationName": "Canvey Haystack Corner",
    "crsCode": "XHH",
    "tiplocCode": "CANVHC",
    "lat": 0.0,
    "long": 0.0
  },
  {
    "stationName": "Canvey Leigh Beck",
    "crsCode": "XLQ",
    "tiplocCode": "CANVLB",
    "lat": 0.0,
    "long": 0.0
  },
  {
    "stationName": "Canvey Link Road & Dinant",
    "crsCode": "XLR",
    "tiplocCode": "CANVLR",
    "lat": 0.0,
    "long": 0.0
  },
  {
    "stationName": "Pill",
    "crsCode": "PIA",
    "tiplocCode": "PILL",
    "lat": 0.0,
    "long": 0.0
  },
  {
    "stationName": "Arklow",
    "crsCode": "ARW",
    "tiplocCode": "ARKW",
    "lat": 52.7939226,
    "long": -6.1597075
  },
  {
    "stationName": "Bray",
    "crsCode": "BZY",
    "tiplocCode": "BRAY",
    "lat": 0.0,
    "long": 0.0
  },
  {
    "stationName": "Carrick - On - Suir",
    "crsCode": "CKU",
    "tiplocCode": "CARICOS",
    "lat": 0.0,
    "long": 0.0
  },
  {
    "stationName": "Clonmel",
    "crsCode": "CLX",
    "tiplocCode": "CLONMEL",
    "lat": 52.3610817,
    "long": -7.6991241
  },
  {
    "stationName": "Cork",
    "crsCode": "COK",
    "tiplocCode": "CORK",
    "lat": 0.0,
    "long": 0.0
  },
  {
    "stationName": "Glounthaune",
    "crsCode": "XGV",
    "tiplocCode": "CATZ002",
    "lat": 0.0,
    "long": 0.0
  },
  {
    "stationName": "Midleton",
    "crsCode": "XME",
    "tiplocCode": "CATZ004",
    "lat": 0.0,
    "long": 0.0
  },
  {
    "stationName": "Dublin Heuston",
    "crsCode": "DHT",
    "tiplocCode": "DUBLINH",
    "lat": 53.3465025,
    "long": -6.2929685
  },
  {
    "stationName": "Enniscorthy",
    "crsCode": "ENS",
    "tiplocCode": "ENISCTY",
    "lat": 52.5046084,
    "long": -6.5662858
  },
  {
    "stationName": "Galway",
    "crsCode": "GWY",
    "tiplocCode": "GALWAY",
    "lat": 0.0,
    "long": 0.0
  },
  {
    "stationName": "Killarney",
    "crsCode": "KLL",
    "tiplocCode": "KILARNY",
    "lat": 0.0,
    "long": 0.0
  },
  {
    "stationName": "Limerick",
    "crsCode": "LRK",
    "tiplocCode": "LIMERIC",
    "lat": 0.0,
    "long": 0.0
  },
  {
    "stationName": "Sixmilebridge",
    "crsCode": "XSB",
    "tiplocCode": "CATZ006",
    "lat": 0.0,
    "long": 0.0
  },
  {
    "stationName": "Mallow",
    "crsCode": "MAW",
    "tiplocCode": "MALLOW",
    "lat": 0.0,
    "long": 0.0
  },
  {
    "stationName": "Tralee",
    "crsCode": "TRL",
    "tiplocCode": "TRALEE",
    "lat": 0.0,
    "long": 0.0
  },
  {
    "stationName": "Waterford",
    "crsCode": "WFD",
    "tiplocCode": "WATERFD",
    "lat": 0.0,
    "long": 0.0
  },
  {
    "stationName": "Wexford",
    "crsCode": "WXF",
    "tiplocCode": "WEXFDOH",
    "lat": 0.0,
    "long": 0.0
  },
  {
    "stationName": "Wicklow",
    "crsCode": "WKL",
    "tiplocCode": "WKLW",
    "lat": 52.9881548,
    "long": -6.0525889
  },
  {
    "stationName": "Combe Martin (Bus)",
    "crsCode": "CMA",
    "tiplocCode": "CMBESEA",
    "lat": 0.0,
    "long": 0.0
  },
  {
    "stationName": "Acton Town Lt",
    "crsCode": "ZAT",
    "tiplocCode": "ACTONTN",
    "lat": 0.0,
    "long": 0.0
  },
  {
    "stationName": "Barbican Lt",
    "crsCode": "ZBB",
    "tiplocCode": "BRBCNLT",
    "lat": 51.5201797,
    "long": -0.0986342
  },
  {
    "stationName": "Aldgate Lt",
    "crsCode": "ZAD",
    "tiplocCode": "ALDGTLT",
    "lat": 0.0,
    "long": 0.0
  },
  {
    "stationName": "Aldgate East Lt",
    "crsCode": "ZAE",
    "tiplocCode": "ALDGEST",
    "lat": 0.0,
    "long": 0.0
  },
  {
    "stationName": "Stratford International Dlr",
    "crsCode": "ZAW",
    "tiplocCode": "",
    "lat": 51.5457077,
    "long": -0.009359
  },
  {
    "stationName": "Alperton Lt",
    "crsCode": "ZAP",
    "tiplocCode": "",
    "lat": 0.0,
    "long": 0.0
  },
  {
    "stationName": "Amersham Lt",
    "crsCode": "AMR",
    "tiplocCode": "AMERSHM",
    "lat": 0.0,
    "long": 0.0
  },
  {
    "stationName": "Angel Lt",
    "crsCode": "ZAN",
    "tiplocCode": "",
    "lat": 0.0,
    "long": 0.0
  },
  {
    "stationName": "Archway Lt",
    "crsCode": "ZAR",
    "tiplocCode": "",
    "lat": 0.0,
    "long": 0.0
  },
  {
    "stationName": "Arnos Grove Lt",
    "crsCode": "ZAG",
    "tiplocCode": "",
    "lat": 0.0,
    "long": 0.0
  },
  {
    "stationName": "Arsenal Lt",
    "crsCode": "ZAM",
    "tiplocCode": "",
    "lat": 0.0,
    "long": 0.0
  },
  {
    "stationName": "Baker Street Lt",
    "crsCode": "ZBS",
    "tiplocCode": "LONDNBS",
    "lat": 0.0,
    "long": 0.0
  },
  {
    "stationName": "Balham Lt",
    "crsCode": "ZBL",
    "tiplocCode": "",
    "lat": 0.0,
    "long": 0.0
  },
  {
    "stationName": "Bank Lt",
    "crsCode": "ZBA",
    "tiplocCode": "",
    "lat": 0.0,
    "long": 0.0
  },
  {
    "stationName": "Barking Lt",
    "crsCode": "ZKB",
    "tiplocCode": "BARKGLT",
    "lat": 0.0,
    "long": 0.0
  },
  {
    "stationName": "Barkingside Lt",
    "crsCode": "ZBN",
    "tiplocCode": "",
    "lat": 0.0,
    "long": 0.0
  },
  {
    "stationName": "Barons Court Lt",
    "crsCode": "ZBQ",
    "tiplocCode": "BRNSTLT",
    "lat": 0.0,
    "long": 0.0
  },
  {
    "stationName": "Bayswater Lt",
    "crsCode": "ZBY",
    "tiplocCode": "",
    "lat": 0.0,
    "long": 0.0
  },
  {
    "stationName": "Becontree Lt",
    "crsCode": "ZBZ",
    "tiplocCode": "BECNTRE",
    "lat": 0.0,
    "long": 0.0
  },
  {
    "stationName": "Belsize Park Lt",
    "crsCode": "ZBP",
    "tiplocCode": "",
    "lat": 0.0,
    "long": 0.0
  },
  {
    "stationName": "Bethnal Green Lt",
    "crsCode": "ZBE",
    "tiplocCode": "",
    "lat": 0.0,
    "long": 0.0
  },
  {
    "stationName": "Blackfriars Lt",
    "crsCode": "ZBF",
    "tiplocCode": "",
    "lat": 0.0,
    "long": 0.0
  },
  {
    "stationName": "Blackhorse Road Lt",
    "crsCode": "ZBK",
    "tiplocCode": "",
    "lat": 0.0,
    "long": 0.0
  },
  {
    "stationName": "King George V Dlr",
    "crsCode": "ZKG",
    "tiplocCode": "",
    "lat": 0.0,
    "long": 0.0
  },
  {
    "stationName": "Bond Street Lt",
    "crsCode": "ZBD",
    "tiplocCode": "",
    "lat": 0.0,
    "long": 0.0
  },
  {
    "stationName": "Borough Lt",
    "crsCode": "ZBU",
    "tiplocCode": "",
    "lat": 0.0,
    "long": 0.0
  },
  {
    "stationName": "Boston Manor Lt",
    "crsCode": "ZBM",
    "tiplocCode": "BSTMNR",
    "lat": 0.0,
    "long": 0.0
  },
  {
    "stationName": "Bounds Green Lt",
    "crsCode": "ZBG",
    "tiplocCode": "BNDSLUL",
    "lat": 0.0,
    "long": 0.0
  },
  {
    "stationName": "Bow Road Lt",
    "crsCode": "ZBR",
    "tiplocCode": "",
    "lat": 0.0,
    "long": 0.0
  },
  {
    "stationName": "Brent Cross Lt",
    "crsCode": "ZBT",
    "tiplocCode": "",
    "lat": 0.0,
    "long": 0.0
  },
  {
    "stationName": "Bromley-By-Bow Lt",
    "crsCode": "ZBW",
    "tiplocCode": "BROMBLT",
    "lat": 0.0,
    "long": 0.0
  },
  {
    "stationName": "Buckhurst Hill Lt",
    "crsCode": "ZBI",
    "tiplocCode": "",
    "lat": 0.0,
    "long": 0.0
  },
  {
    "stationName": "Burnt Oak Lt",
    "crsCode": "ZBO",
    "tiplocCode": "",
    "lat": 0.0,
    "long": 0.0
  },
  {
    "stationName": "London City Airport Dlr",
    "crsCode": "ZAF",
    "tiplocCode": "",
    "lat": 0.0,
    "long": 0.0
  },
  {
    "stationName": "Caledonian Road Lt",
    "crsCode": "ZCR",
    "tiplocCode": "",
    "lat": 0.0,
    "long": 0.0
  },
  {
    "stationName": "Camden Town Lt",
    "crsCode": "ZCT",
    "tiplocCode": "",
    "lat": 0.0,
    "long": 0.0
  },
  {
    "stationName": "Cannon Street Lt",
    "crsCode": "ZCS",
    "tiplocCode": "",
    "lat": 0.0,
    "long": 0.0
  },
  {
    "stationName": "Canons Park Lt",
    "crsCode": "ZCP",
    "tiplocCode": "",
    "lat": 0.0,
    "long": 0.0
  },
  {
    "stationName": "Pontoon Dock Dlr",
    "crsCode": "ZAH",
    "tiplocCode": "",
    "lat": 0.0,
    "long": 0.0
  },
  {
    "stationName": "Chalfont & Latimer Lt",
    "crsCode": "CFO",
    "tiplocCode": "CHLFNAL",
    "lat": 0.0,
    "long": 0.0
  },
  {
    "stationName": "Chalk Farm Lt",
    "crsCode": "ZCF",
    "tiplocCode": "",
    "lat": 0.0,
    "long": 0.0
  },
  {
    "stationName": "Chancery Lane Lt",
    "crsCode": "ZCY",
    "tiplocCode": "",
    "lat": 0.0,
    "long": 0.0
  },
  {
    "stationName": "Embankment Lt",
    "crsCode": "ZEK",
    "tiplocCode": "EMBKMNT",
    "lat": 0.0,
    "long": 0.0
  },
  {
    "stationName": "Chesham Lt",
    "crsCode": "ZCM",
    "tiplocCode": "CHSM",
    "lat": 0.0,
    "long": 0.0
  },
  {
    "stationName": "Chigwell Lt",
    "crsCode": "ZCG",
    "tiplocCode": "",
    "lat": 0.0,
    "long": 0.0
  },
  {
    "stationName": "Chiswick Park Lt",
    "crsCode": "ZCI",
    "tiplocCode": "CHSPLUL",
    "lat": 0.0,
    "long": 0.0
  },
  {
    "stationName": "Chorleywood Lt",
    "crsCode": "CLW",
    "tiplocCode": "CHRW",
    "lat": 0.0,
    "long": 0.0
  },
  {
    "stationName": "Clapham Common Lt",
    "crsCode": "ZCC",
    "tiplocCode": "",
    "lat": 0.0,
    "long": 0.0
  },
  {
    "stationName": "Clapham North Lt",
    "crsCode": "ZCN",
    "tiplocCode": "",
    "lat": 0.0,
    "long": 0.0
  },
  {
    "stationName": "Clapham South Lt",
    "crsCode": "ZCA",
    "tiplocCode": "",
    "lat": 0.0,
    "long": 0.0
  },
  {
    "stationName": "Cockfosters Lt",
    "crsCode": "ZCK",
    "tiplocCode": "CCKFLUL",
    "lat": 0.0,
    "long": 0.0
  },
  {
    "stationName": "Colindale Lt",
    "crsCode": "ZCD",
    "tiplocCode": "",
    "lat": 0.0,
    "long": 0.0
  },
  {
    "stationName": "Collier'S Wood Lt",
    "crsCode": "ZCL",
    "tiplocCode": "",
    "lat": 0.0,
    "long": 0.0
  },
  {
    "stationName": "Covent Garden Lt",
    "crsCode": "ZCV",
    "tiplocCode": "",
    "lat": 0.0,
    "long": 0.0
  },
  {
    "stationName": "Croxley Lt",
    "crsCode": "ZCO",
    "tiplocCode": "CRXLEY",
    "lat": 0.0,
    "long": 0.0
  },
  {
    "stationName": "Dagenham East Lt",
    "crsCode": "ZDE",
    "tiplocCode": "DGNHELT",
    "lat": 0.0,
    "long": 0.0
  },
  {
    "stationName": "Dagenham Heathway Lt",
    "crsCode": "ZDH",
    "tiplocCode": "",
    "lat": 0.0,
    "long": 0.0
  },
  {
    "stationName": "Debden Lt",
    "crsCode": "ZDD",
    "tiplocCode": "",
    "lat": 0.0,
    "long": 0.0
  },
  {
    "stationName": "Dollis Hill Lt",
    "crsCode": "ZDO",
    "tiplocCode": "",
    "lat": 0.0,
    "long": 0.0
  },
  {
    "stationName": "West Silvertown Dlr",
    "crsCode": "ZAI",
    "tiplocCode": "",
    "lat": 0.0,
    "long": 0.0
  },
  {
    "stationName": "Ealing Broadway Lt",
    "crsCode": "ZEB",
    "tiplocCode": "",
    "lat": 0.0,
    "long": 0.0
  },
  {
    "stationName": "Ealing Common Lt",
    "crsCode": "ZEC",
    "tiplocCode": "",
    "lat": 0.0,
    "long": 0.0
  },
  {
    "stationName": "Earl'S Court Lt",
    "crsCode": "ZET",
    "tiplocCode": "ELCT",
    "lat": 0.0,
    "long": 0.0
  },
  {
    "stationName": "East Acton Lt",
    "crsCode": "ZEA",
    "tiplocCode": "",
    "lat": 0.0,
    "long": 0.0
  },
  {
    "stationName": "Eastcote Lt",
    "crsCode": "ZEE",
    "tiplocCode": "",
    "lat": 0.0,
    "long": 0.0
  },
  {
    "stationName": "East Finchley Lt",
    "crsCode": "ZEF",
    "tiplocCode": "",
    "lat": 0.0,
    "long": 0.0
  },
  {
    "stationName": "East Ham Lt",
    "crsCode": "ZEH",
    "tiplocCode": "EASTHAM",
    "lat": 0.0,
    "long": 0.0
  },
  {
    "stationName": "Edgware Lt",
    "crsCode": "ZED",
    "tiplocCode": "EDGWARE",
    "lat": 0.0,
    "long": 0.0
  },
  {
    "stationName": "Edgware Road (Met&Circle) Lt",
    "crsCode": "ZEM",
    "tiplocCode": "",
    "lat": 0.0,
    "long": 0.0
  },
  {
    "stationName": "Elephant & Castle Lt",
    "crsCode": "ZEL",
    "tiplocCode": "EPHT",
    "lat": 51.4948884,
    "long": -0.1005731
  },
  {
    "stationName": "Elm Park Lt",
    "crsCode": "ZEP",
    "tiplocCode": "",
    "lat": 0.0,
    "long": 0.0
  },
  {
    "stationName": "Epping Lt",
    "crsCode": "ZEG",
    "tiplocCode": "",
    "lat": 0.0,
    "long": 0.0
  },
  {
    "stationName": "Woolwich Arsenal Dlr",
    "crsCode": "ZAJ",
    "tiplocCode": "",
    "lat": 51.4901052,
    "long": 0.0695827
  },
  {
    "stationName": "Euston Lt",
    "crsCode": "ZEU",
    "tiplocCode": "",
    "lat": 0.0,
    "long": 0.0
  },
  {
    "stationName": "Euston Square Lt",
    "crsCode": "ZES",
    "tiplocCode": "",
    "lat": 0.0,
    "long": 0.0
  },
  {
    "stationName": "Fairlop Lt",
    "crsCode": "ZFA",
    "tiplocCode": "",
    "lat": 0.0,
    "long": 0.0
  },
  {
    "stationName": "Farringdon",
    "crsCode": "ZFD",
    "tiplocCode": "FRNDNLT",
    "lat": 51.519964,
    "long": -0.104555
  },
  {
    "stationName": "Finchley Central Lt",
    "crsCode": "ZFC",
    "tiplocCode": "",
    "lat": 0.0,
    "long": 0.0
  },
  {
    "stationName": "Finchley Road Lt",
    "crsCode": "ZFR",
    "tiplocCode": "FNCHMET",
    "lat": 0.0,
    "long": 0.0
  },
  {
    "stationName": "Finsbury Park Lt",
    "crsCode": "ZFP",
    "tiplocCode": "",
    "lat": 0.0,
    "long": 0.0
  },
  {
    "stationName": "Fulham Broadway Lt",
    "crsCode": "ZFB",
    "tiplocCode": "",
    "lat": 0.0,
    "long": 0.0
  },
  {
    "stationName": "Gants Hill Lt",
    "crsCode": "ZGA",
    "tiplocCode": "",
    "lat": 0.0,
    "long": 0.0
  },
  {
    "stationName": "Gloucester Road Lt",
    "crsCode": "ZGR",
    "tiplocCode": "",
    "lat": 0.0,
    "long": 0.0
  },
  {
    "stationName": "Golders Green Lt",
    "crsCode": "ZGG",
    "tiplocCode": "",
    "lat": 0.0,
    "long": 0.0
  },
  {
    "stationName": "Goldhawk Road Lt",
    "crsCode": "ZGW",
    "tiplocCode": "",
    "lat": 0.0,
    "long": 0.0
  },
  {
    "stationName": "Goodge Street Lt",
    "crsCode": "ZGS",
    "tiplocCode": "",
    "lat": 0.0,
    "long": 0.0
  },
  {
    "stationName": "Grange Hill Lt",
    "crsCode": "ZGH",
    "tiplocCode": "",
    "lat": 0.0,
    "long": 0.0
  },
  {
    "stationName": "Great Portland Street Lt",
    "crsCode": "ZGP",
    "tiplocCode": "",
    "lat": 0.0,
    "long": 0.0
  },
  {
    "stationName": "Greenford Lt",
    "crsCode": "ZGF",
    "tiplocCode": "",
    "lat": 0.0,
    "long": 0.0
  },
  {
    "stationName": "Green Park Lt",
    "crsCode": "ZGE",
    "tiplocCode": "",
    "lat": 0.0,
    "long": 0.0
  },
  {
    "stationName": "Hainault Lt",
    "crsCode": "ZHT",
    "tiplocCode": "",
    "lat": 0.0,
    "long": 0.0
  },
  {
    "stationName": "Hammersmith Lt",
    "crsCode": "ZHA",
    "tiplocCode": "HAMDLUL",
    "lat": 0.0,
    "long": 0.0
  },
  {
    "stationName": "Hampstead Lt",
    "crsCode": "ZHM",
    "tiplocCode": "",
    "lat": 0.0,
    "long": 0.0
  },
  {
    "stationName": "Hanger Lane Lt",
    "crsCode": "ZHL",
    "tiplocCode": "",
    "lat": 0.0,
    "long": 0.0
  },
  {
    "stationName": "Harlesden Lt",
    "crsCode": "ZRH",
    "tiplocCode": "",
    "lat": 0.0,
    "long": 0.0
  },
  {
    "stationName": "Harrow-On-The-Hill Lt",
    "crsCode": "HOH",
    "tiplocCode": "HAROOTH",
    "lat": 0.0,
    "long": 0.0
  },
  {
    "stationName": "Wood Lane Lt",
    "crsCode": "ZWQ",
    "tiplocCode": "",
    "lat": 0.0,
    "long": 0.0
  },
  {
    "stationName": "Kings Cross Northern Lt",
    "crsCode": "ZZZ",
    "tiplocCode": "",
    "lat": 0.0,
    "long": 0.0
  },
  {
    "stationName": "Hendon Central Lt",
    "crsCode": "ZHN",
    "tiplocCode": "",
    "lat": 0.0,
    "long": 0.0
  },
  {
    "stationName": "High Barnet Lt",
    "crsCode": "ZHB",
    "tiplocCode": "HIGBRNT",
    "lat": 0.0,
    "long": 0.0
  },
  {
    "stationName": "Highbury & Islington Lt",
    "crsCode": "ZHI",
    "tiplocCode": "",
    "lat": 0.0,
    "long": 0.0
  },
  {
    "stationName": "Highgate Lt",
    "crsCode": "ZHG",
    "tiplocCode": "",
    "lat": 0.0,
    "long": 0.0
  },
  {
    "stationName": "High Street Kensington Lt",
    "crsCode": "ZHS",
    "tiplocCode": "KNSGHST",
    "lat": 51.5002995,
    "long": -0.1921096
  },
  {
    "stationName": "Hillingdon Lt",
    "crsCode": "ZHD",
    "tiplocCode": "HLNDLT",
    "lat": 0.0,
    "long": 0.0
  },
  {
    "stationName": "Holborn Lt",
    "crsCode": "ZHO",
    "tiplocCode": "",
    "lat": 0.0,
    "long": 0.0
  },
  {
    "stationName": "Holland Park Lt",
    "crsCode": "ZHP",
    "tiplocCode": "",
    "lat": 0.0,
    "long": 0.0
  },
  {
    "stationName": "Holloway Road Lt",
    "crsCode": "ZHR",
    "tiplocCode": "HLWYRLT",
    "lat": 0.0,
    "long": 0.0
  },
  {
    "stationName": "Hornchurch Lt",
    "crsCode": "ZHU",
    "tiplocCode": "",
    "lat": 0.0,
    "long": 0.0
  },
  {
    "stationName": "Hounslow Central Lt",
    "crsCode": "ZHC",
    "tiplocCode": "",
    "lat": 0.0,
    "long": 0.0
  },
  {
    "stationName": "Hounslow East Lt",
    "crsCode": "ZHE",
    "tiplocCode": "",
    "lat": 0.0,
    "long": 0.0
  },
  {
    "stationName": "Hounslow West Lt",
    "crsCode": "ZHW",
    "tiplocCode": "",
    "lat": 0.0,
    "long": 0.0
  },
  {
    "stationName": "Hyde Park Corner Lt",
    "crsCode": "ZHY",
    "tiplocCode": "",
    "lat": 0.0,
    "long": 0.0
  },
  {
    "stationName": "Ickenham Lt",
    "crsCode": "ZIC",
    "tiplocCode": "",
    "lat": 0.0,
    "long": 0.0
  },
  {
    "stationName": "Kennington Lt",
    "crsCode": "ZKE",
    "tiplocCode": "",
    "lat": 0.0,
    "long": 0.0
  },
  {
    "stationName": "Kentish Town Lt",
    "crsCode": "ZKT",
    "tiplocCode": "",
    "lat": 0.0,
    "long": 0.0
  },
  {
    "stationName": "Kilburn Lt",
    "crsCode": "ZKI",
    "tiplocCode": "",
    "lat": 0.0,
    "long": 0.0
  },
  {
    "stationName": "Kilburn Park Lt",
    "crsCode": "ZKP",
    "tiplocCode": "KILBPLT",
    "lat": 0.0,
    "long": 0.0
  },
  {
    "stationName": "Kingsbury Lt",
    "crsCode": "ZKY",
    "tiplocCode": "",
    "lat": 0.0,
    "long": 0.0
  },
  {
    "stationName": "King'S Cross St.Pancras Lt",
    "crsCode": "ZKX",
    "tiplocCode": "",
    "lat": 0.0,
    "long": 0.0
  },
  {
    "stationName": "Knightsbridge Lt",
    "crsCode": "ZKN",
    "tiplocCode": "",
    "lat": 0.0,
    "long": 0.0
  },
  {
    "stationName": "Ladbroke Grove Lt",
    "crsCode": "ZLG",
    "tiplocCode": "",
    "lat": 0.0,
    "long": 0.0
  },
  {
    "stationName": "Lambeth North Lt",
    "crsCode": "ZLN",
    "tiplocCode": "",
    "lat": 0.0,
    "long": 0.0
  },
  {
    "stationName": "Lancaster Gate Lt",
    "crsCode": "ZLA",
    "tiplocCode": "",
    "lat": 0.0,
    "long": 0.0
  },
  {
    "stationName": "Latimer Road Lt",
    "crsCode": "ZLR",
    "tiplocCode": "",
    "lat": 0.0,
    "long": 0.0
  },
  {
    "stationName": "Leicester Square Lt",
    "crsCode": "ZLS",
    "tiplocCode": "",
    "lat": 0.0,
    "long": 0.0
  },
  {
    "stationName": "Leyton Lt",
    "crsCode": "ZLY",
    "tiplocCode": "",
    "lat": 0.0,
    "long": 0.0
  },
  {
    "stationName": "Leytonstone Lt",
    "crsCode": "ZLE",
    "tiplocCode": "",
    "lat": 0.0,
    "long": 0.0
  },
  {
    "stationName": "Liverpool Street Lt",
    "crsCode": "ZLV",
    "tiplocCode": "",
    "lat": 0.0,
    "long": 0.0
  },
  {
    "stationName": "London Bridge Lt",
    "crsCode": "ZLB",
    "tiplocCode": "",
    "lat": 0.0,
    "long": 0.0
  },
  {
    "stationName": "Loughton Lt",
    "crsCode": "ZLO",
    "tiplocCode": "",
    "lat": 0.0,
    "long": 0.0
  },
  {
    "stationName": "Maida Vale Lt",
    "crsCode": "ZMV",
    "tiplocCode": "MDVLLT",
    "lat": 0.0,
    "long": 0.0
  },
  {
    "stationName": "Manor House Lt",
    "crsCode": "ZMR",
    "tiplocCode": "",
    "lat": 0.0,
    "long": 0.0
  },
  {
    "stationName": "Mansion House Lt",
    "crsCode": "ZMH",
    "tiplocCode": "MANSNHS",
    "lat": 0.0,
    "long": 0.0
  },
  {
    "stationName": "Marble Arch Lt",
    "crsCode": "ZMA",
    "tiplocCode": "",
    "lat": 0.0,
    "long": 0.0
  },
  {
    "stationName": "Marylebone Lt",
    "crsCode": "ZMY",
    "tiplocCode": "",
    "lat": 0.0,
    "long": 0.0
  },
  {
    "stationName": "Mile End Lt",
    "crsCode": "ZME",
    "tiplocCode": "",
    "lat": 0.0,
    "long": 0.0
  },
  {
    "stationName": "Mill Hill East Lt",
    "crsCode": "ZML",
    "tiplocCode": "",
    "lat": 0.0,
    "long": 0.0
  },
  {
    "stationName": "Monument Lt",
    "crsCode": "ZMM",
    "tiplocCode": "",
    "lat": 0.0,
    "long": 0.0
  },
  {
    "stationName": "Moorgate Lt",
    "crsCode": "ZMG",
    "tiplocCode": "MORGTLT",
    "lat": 0.0,
    "long": 0.0
  },
  {
    "stationName": "Moor Park Lt",
    "crsCode": "ZMP",
    "tiplocCode": "MOORPK",
    "lat": 0.0,
    "long": 0.0
  },
  {
    "stationName": "Morden Lt",
    "crsCode": "ZMO",
    "tiplocCode": "",
    "lat": 0.0,
    "long": 0.0
  },
  {
    "stationName": "Mornington Crescent Lt",
    "crsCode": "ZMC",
    "tiplocCode": "",
    "lat": 0.0,
    "long": 0.0
  },
  {
    "stationName": "Neasden Lt",
    "crsCode": "ZNN",
    "tiplocCode": "",
    "lat": 0.0,
    "long": 0.0
  },
  {
    "stationName": "Newbury Park Lt",
    "crsCode": "ZNP",
    "tiplocCode": "ILFENBP",
    "lat": 0.0,
    "long": 0.0
  },
  {
    "stationName": "North Acton Lt",
    "crsCode": "ZNA",
    "tiplocCode": "NACTON",
    "lat": 0.0,
    "long": 0.0
  },
  {
    "stationName": "North Ealing Lt",
    "crsCode": "ZNE",
    "tiplocCode": "",
    "lat": 0.0,
    "long": 0.0
  },
  {
    "stationName": "Northfields Lt",
    "crsCode": "ZNF",
    "tiplocCode": "",
    "lat": 0.0,
    "long": 0.0
  },
  {
    "stationName": "North Harrow Lt",
    "crsCode": "ZNH",
    "tiplocCode": "",
    "lat": 0.0,
    "long": 0.0
  },
  {
    "stationName": "Northolt Lt",
    "crsCode": "ZNO",
    "tiplocCode": "",
    "lat": 0.0,
    "long": 0.0
  },
  {
    "stationName": "Northwick Park Lt",
    "crsCode": "ZNK",
    "tiplocCode": "",
    "lat": 0.0,
    "long": 0.0
  },
  {
    "stationName": "Northwood Lt",
    "crsCode": "ZND",
    "tiplocCode": "",
    "lat": 0.0,
    "long": 0.0
  },
  {
    "stationName": "Northwood Hills Lt",
    "crsCode": "ZNS",
    "tiplocCode": "",
    "lat": 0.0,
    "long": 0.0
  },
  {
    "stationName": "Notting Hill Gate Lt",
    "crsCode": "ZNG",
    "tiplocCode": "",
    "lat": 0.0,
    "long": 0.0
  },
  {
    "stationName": "Oakwood Lt",
    "crsCode": "ZOA",
    "tiplocCode": "",
    "lat": 0.0,
    "long": 0.0
  },
  {
    "stationName": "Old Street Lt",
    "crsCode": "ZOS",
    "tiplocCode": "",
    "lat": 0.0,
    "long": 0.0
  },
  {
    "stationName": "Osterley Lt",
    "crsCode": "ZOY",
    "tiplocCode": "",
    "lat": 0.0,
    "long": 0.0
  },
  {
    "stationName": "Oval Lt",
    "crsCode": "ZOV",
    "tiplocCode": "",
    "lat": 0.0,
    "long": 0.0
  },
  {
    "stationName": "Oxford Circus Lt",
    "crsCode": "ZOC",
    "tiplocCode": "OXFCRCS",
    "lat": 0.0,
    "long": 0.0
  },
  {
    "stationName": "Paddington Lt",
    "crsCode": "ZPA",
    "tiplocCode": "",
    "lat": 0.0,
    "long": 0.0
  },
  {
    "stationName": "Park Royal Lt",
    "crsCode": "ZPK",
    "tiplocCode": "",
    "lat": 0.0,
    "long": 0.0
  },
  {
    "stationName": "Parsons Green Lt",
    "crsCode": "ZPG",
    "tiplocCode": "",
    "lat": 0.0,
    "long": 0.0
  },
  {
    "stationName": "Perivale Lt",
    "crsCode": "ZPE",
    "tiplocCode": "",
    "lat": 0.0,
    "long": 0.0
  },
  {
    "stationName": "Piccadilly Circus Lt",
    "crsCode": "ZPC",
    "tiplocCode": "PICDYCR",
    "lat": 0.0,
    "long": 0.0
  },
  {
    "stationName": "Pinner Lt",
    "crsCode": "ZPI",
    "tiplocCode": "",
    "lat": 0.0,
    "long": 0.0
  },
  {
    "stationName": "Plaistow Lt",
    "crsCode": "ZPS",
    "tiplocCode": "PLASTOW",
    "lat": 0.0,
    "long": 0.0
  },
  {
    "stationName": "Preston Road Lt",
    "crsCode": "ZPR",
    "tiplocCode": "",
    "lat": 0.0,
    "long": 0.0
  },
  {
    "stationName": "Putney Bridge Lt",
    "crsCode": "ZPB",
    "tiplocCode": "",
    "lat": 0.0,
    "long": 0.0
  },
  {
    "stationName": "Queensbury Lt",
    "crsCode": "ZQB",
    "tiplocCode": "",
    "lat": 0.0,
    "long": 0.0
  },
  {
    "stationName": "Queensway Lt",
    "crsCode": "ZQW",
    "tiplocCode": "",
    "lat": 0.0,
    "long": 0.0
  },
  {
    "stationName": "Ravenscourt Park Lt",
    "crsCode": "ZRA",
    "tiplocCode": "",
    "lat": 0.0,
    "long": 0.0
  },
  {
    "stationName": "Rayners Lane Lt",
    "crsCode": "ZRL",
    "tiplocCode": "",
    "lat": 0.0,
    "long": 0.0
  },
  {
    "stationName": "Redbridge Lt",
    "crsCode": "ZRE",
    "tiplocCode": "ILFERDB",
    "lat": 0.0,
    "long": 0.0
  },
  {
    "stationName": "Regent'S Park Lt",
    "crsCode": "ZRP",
    "tiplocCode": "",
    "lat": 0.0,
    "long": 0.0
  },
  {
    "stationName": "Rickmansworth Lt",
    "crsCode": "RIC",
    "tiplocCode": "RCKMNSW",
    "lat": 0.0,
    "long": 0.0
  },
  {
    "stationName": "Roding Valley Lt",
    "crsCode": "ZRV",
    "tiplocCode": "",
    "lat": 0.0,
    "long": 0.0
  },
  {
    "stationName": "Royal Oak Lt",
    "crsCode": "ZRY",
    "tiplocCode": "ROYALO",
    "lat": 0.0,
    "long": 0.0
  },
  {
    "stationName": "Ruislip Lt",
    "crsCode": "ZRU",
    "tiplocCode": "",
    "lat": 0.0,
    "long": 0.0
  },
  {
    "stationName": "Ruislip Gardens Lt",
    "crsCode": "ZRG",
    "tiplocCode": "",
    "lat": 0.0,
    "long": 0.0
  },
  {
    "stationName": "Ruislip Manor Lt",
    "crsCode": "ZRM",
    "tiplocCode": "",
    "lat": 0.0,
    "long": 0.0
  },
  {
    "stationName": "Russell Square Lt",
    "crsCode": "ZRS",
    "tiplocCode": "",
    "lat": 0.0,
    "long": 0.0
  },
  {
    "stationName": "St James'S Park",
    "crsCode": "ZSS",
    "tiplocCode": "",
    "lat": 0.0,
    "long": 0.0
  },
  {
    "stationName": "St.John'S Wood Lt",
    "crsCode": "ZSJ",
    "tiplocCode": "",
    "lat": 0.0,
    "long": 0.0
  },
  {
    "stationName": "St.Paul'S Lt",
    "crsCode": "ZSP",
    "tiplocCode": "",
    "lat": 0.0,
    "long": 0.0
  },
  {
    "stationName": "Seven Sisters Lt",
    "crsCode": "ZSV",
    "tiplocCode": "",
    "lat": 0.0,
    "long": 0.0
  },
  {
    "stationName": "Shepherd'S Bush (Central) Lt",
    "crsCode": "ZSZ",
    "tiplocCode": "",
    "lat": 0.0,
    "long": 0.0
  },
  {
    "stationName": "Sloane Square Lt",
    "crsCode": "ZLQ",
    "tiplocCode": "",
    "lat": 0.0,
    "long": 0.0
  },
  {
    "stationName": "Snaresbrook Lt",
    "crsCode": "ZSN",
    "tiplocCode": "",
    "lat": 0.0,
    "long": 0.0
  },
  {
    "stationName": "South Ealing Lt",
    "crsCode": "ZSE",
    "tiplocCode": "",
    "lat": 0.0,
    "long": 0.0
  },
  {
    "stationName": "Southgate Lt",
    "crsCode": "ZSA",
    "tiplocCode": "",
    "lat": 0.0,
    "long": 0.0
  },
  {
    "stationName": "South Harrow Lt",
    "crsCode": "ZSX",
    "tiplocCode": "",
    "lat": 0.0,
    "long": 0.0
  },
  {
    "stationName": "South Kensington Lt",
    "crsCode": "ZSK",
    "tiplocCode": "SKENSIN",
    "lat": 0.0,
    "long": 0.0
  },
  {
    "stationName": "South Ruislip Lt",
    "crsCode": "ZSR",
    "tiplocCode": "",
    "lat": 0.0,
    "long": 0.0
  },
  {
    "stationName": "South Wimbledon Lt",
    "crsCode": "ZSI",
    "tiplocCode": "SWIMBDN",
    "lat": 0.0,
    "long": 0.0
  },
  {
    "stationName": "South Woodford Lt",
    "crsCode": "ZQS",
    "tiplocCode": "",
    "lat": 0.0,
    "long": 0.0
  },
  {
    "stationName": "Stamford Brook Lt",
    "crsCode": "ZSF",
    "tiplocCode": "",
    "lat": 0.0,
    "long": 0.0
  },
  {
    "stationName": "Stanmore Lt",
    "crsCode": "ZSM",
    "tiplocCode": "STNMORE",
    "lat": 0.0,
    "long": 0.0
  },
  {
    "stationName": "Stepney Green Lt",
    "crsCode": "ZSG",
    "tiplocCode": "",
    "lat": 0.0,
    "long": 0.0
  },
  {
    "stationName": "Stockwell Lt",
    "crsCode": "ZSL",
    "tiplocCode": "",
    "lat": 0.0,
    "long": 0.0
  },
  {
    "stationName": "Charing Cross Lt",
    "crsCode": "ZCX",
    "tiplocCode": "",
    "lat": 0.0,
    "long": 0.0
  },
  {
    "stationName": "Sudbury Hill Lt",
    "crsCode": "ZSH",
    "tiplocCode": "",
    "lat": 0.0,
    "long": 0.0
  },
  {
    "stationName": "Sudbury Town Lt",
    "crsCode": "ZSY",
    "tiplocCode": "",
    "lat": 0.0,
    "long": 0.0
  },
  {
    "stationName": "Victoria (District) Lt",
    "crsCode": "ZSU",
    "tiplocCode": "",
    "lat": 0.0,
    "long": 0.0
  },
  {
    "stationName": "Swiss Cottage Lt",
    "crsCode": "ZSC",
    "tiplocCode": "",
    "lat": 0.0,
    "long": 0.0
  },
  {
    "stationName": "Temple Lt",
    "crsCode": "ZTM",
    "tiplocCode": "",
    "lat": 0.0,
    "long": 0.0
  },
  {
    "stationName": "Theydon Bois Lt",
    "crsCode": "ZTY",
    "tiplocCode": "",
    "lat": 0.0,
    "long": 0.0
  },
  {
    "stationName": "Tooting Bec Lt",
    "crsCode": "ZTB",
    "tiplocCode": "",
    "lat": 0.0,
    "long": 0.0
  },
  {
    "stationName": "Tooting Broadway Lt",
    "crsCode": "ZTO",
    "tiplocCode": "",
    "lat": 0.0,
    "long": 0.0
  },
  {
    "stationName": "Tottenham Court Road Lt",
    "crsCode": "ZTC",
    "tiplocCode": "",
    "lat": 0.0,
    "long": 0.0
  },
  {
    "stationName": "Tottenham Hale Lt",
    "crsCode": "ZTT",
    "tiplocCode": "",
    "lat": 0.0,
    "long": 0.0
  },
  {
    "stationName": "Totteridge & Whetstone Lt",
    "crsCode": "ZTW",
    "tiplocCode": "",
    "lat": 0.0,
    "long": 0.0
  },
  {
    "stationName": "Tower Hill Lt",
    "crsCode": "ZTH",
    "tiplocCode": "TOWERHL",
    "lat": 0.0,
    "long": 0.0
  },
  {
    "stationName": "Tufnell Park Lt",
    "crsCode": "ZTP",
    "tiplocCode": "",
    "lat": 0.0,
    "long": 0.0
  },
  {
    "stationName": "Turnham Green Lt",
    "crsCode": "ZTU",
    "tiplocCode": "TRNHMGN",
    "lat": 0.0,
    "long": 0.0
  },
  {
    "stationName": "Turnpike Lane Lt",
    "crsCode": "ZTL",
    "tiplocCode": "",
    "lat": 0.0,
    "long": 0.0
  },
  {
    "stationName": "Upminster Lt",
    "crsCode": "ZUM",
    "tiplocCode": "UPMNLT",
    "lat": 0.0,
    "long": 0.0
  },
  {
    "stationName": "Upminster Bridge Lt",
    "crsCode": "ZUB",
    "tiplocCode": "",
    "lat": 0.0,
    "long": 0.0
  },
  {
    "stationName": "Upney Lt",
    "crsCode": "ZUY",
    "tiplocCode": "",
    "lat": 0.0,
    "long": 0.0
  },
  {
    "stationName": "Upton Park Lt",
    "crsCode": "ZUP",
    "tiplocCode": "",
    "lat": 0.0,
    "long": 0.0
  },
  {
    "stationName": "Uxbridge Lt",
    "crsCode": "ZUX",
    "tiplocCode": "",
    "lat": 0.0,
    "long": 0.0
  },
  {
    "stationName": "Victoria Lt",
    "crsCode": "ZVI",
    "tiplocCode": "",
    "lat": 0.0,
    "long": 0.0
  },
  {
    "stationName": "Walthamstow Central Lt",
    "crsCode": "ZWW",
    "tiplocCode": "",
    "lat": 0.0,
    "long": 0.0
  },
  {
    "stationName": "Wanstead Lt",
    "crsCode": "ZWN",
    "tiplocCode": "",
    "lat": 0.0,
    "long": 0.0
  },
  {
    "stationName": "Warren Street Lt",
    "crsCode": "ZWS",
    "tiplocCode": "",
    "lat": 0.0,
    "long": 0.0
  },
  {
    "stationName": "Warwick Avenue Lt",
    "crsCode": "ZWV",
    "tiplocCode": "WRKALT",
    "lat": 0.0,
    "long": 0.0
  },
  {
    "stationName": "Waterloo Lt",
    "crsCode": "ZWA",
    "tiplocCode": "WATRLLT",
    "lat": 0.0,
    "long": 0.0
  },
  {
    "stationName": "Watford Lt",
    "crsCode": "ZWT",
    "tiplocCode": "WATFLUL",
    "lat": 0.0,
    "long": 0.0
  },
  {
    "stationName": "Stratford High Street Dlr",
    "crsCode": "ZST",
    "tiplocCode": "",
    "lat": 0.0,
    "long": 0.0
  },
  {
    "stationName": "Abbey Road Dlr",
    "crsCode": "ZAL",
    "tiplocCode": "",
    "lat": 0.0,
    "long": 0.0
  },
  {
    "stationName": "Wembley Park Lt",
    "crsCode": "ZWY",
    "tiplocCode": "",
    "lat": 0.0,
    "long": 0.0
  },
  {
    "stationName": "West Acton Lt",
    "crsCode": "ZWE",
    "tiplocCode": "",
    "lat": 0.0,
    "long": 0.0
  },
  {
    "stationName": "Westbourne Park Lt",
    "crsCode": "ZWU",
    "tiplocCode": "",
    "lat": 0.0,
    "long": 0.0
  },
  {
    "stationName": "West Brompton Lt",
    "crsCode": "ZWB",
    "tiplocCode": "",
    "lat": 0.0,
    "long": 0.0
  },
  {
    "stationName": "West Finchley Lt",
    "crsCode": "ZWF",
    "tiplocCode": "",
    "lat": 0.0,
    "long": 0.0
  },
  {
    "stationName": "West Ham Lt",
    "crsCode": "ZWZ",
    "tiplocCode": "WHAMLT",
    "lat": 0.0,
    "long": 0.0
  },
  {
    "stationName": "West Hampstead Lt",
    "crsCode": "ZWH",
    "tiplocCode": "",
    "lat": 0.0,
    "long": 0.0
  },
  {
    "stationName": "West Harrow Lt",
    "crsCode": "ZWX",
    "tiplocCode": "",
    "lat": 0.0,
    "long": 0.0
  },
  {
    "stationName": "West Kensington Lt",
    "crsCode": "ZWK",
    "tiplocCode": "",
    "lat": 0.0,
    "long": 0.0
  },
  {
    "stationName": "Westminster Lt",
    "crsCode": "ZWM",
    "tiplocCode": "",
    "lat": 0.0,
    "long": 0.0
  },
  {
    "stationName": "West Ruislip Lt",
    "crsCode": "ZWR",
    "tiplocCode": "",
    "lat": 0.0,
    "long": 0.0
  },
  {
    "stationName": "Whitechapel Lt",
    "crsCode": "ZWL",
    "tiplocCode": "",
    "lat": 0.0,
    "long": 0.0
  },
  {
    "stationName": "White City Lt",
    "crsCode": "ZWC",
    "tiplocCode": "",
    "lat": 0.0,
    "long": 0.0
  },
  {
    "stationName": "Willesden Green Lt",
    "crsCode": "ZWG",
    "tiplocCode": "",
    "lat": 0.0,
    "long": 0.0
  },
  {
    "stationName": "Woodford Lt",
    "crsCode": "ZWO",
    "tiplocCode": "",
    "lat": 0.0,
    "long": 0.0
  },
  {
    "stationName": "Wood Green Lt",
    "crsCode": "ZWD",
    "tiplocCode": "",
    "lat": 0.0,
    "long": 0.0
  },
  {
    "stationName": "Woodside Park Lt",
    "crsCode": "ZWI",
    "tiplocCode": "",
    "lat": 0.0,
    "long": 0.0
  },
  {
    "stationName": "Hammersmith (Met) Lt",
    "crsCode": "ZHZ",
    "tiplocCode": "",
    "lat": 0.0,
    "long": 0.0
  },
  {
    "stationName": "Edgware Road (Bakerloo) Lt",
    "crsCode": "ZER",
    "tiplocCode": "",
    "lat": 0.0,
    "long": 0.0
  },
  {
    "stationName": "Shepherd'S Bush Market Lt",
    "crsCode": "ZSB",
    "tiplocCode": "",
    "lat": 0.0,
    "long": 0.0
  },
  {
    "stationName": "Pimlico Lt",
    "crsCode": "ZPO",
    "tiplocCode": "",
    "lat": 0.0,
    "long": 0.0
  },
  {
    "stationName": "Vauxhall Lt",
    "crsCode": "ZVA",
    "tiplocCode": "",
    "lat": 0.0,
    "long": 0.0
  },
  {
    "stationName": "Brixton Lt",
    "crsCode": "ZBX",
    "tiplocCode": "",
    "lat": 0.0,
    "long": 0.0
  },
  {
    "stationName": "Hatton Cross Lt",
    "crsCode": "ZHX",
    "tiplocCode": "",
    "lat": 0.0,
    "long": 0.0
  },
  {
    "stationName": "Heathrow 123 Lt",
    "crsCode": "ZHV",
    "tiplocCode": "",
    "lat": 0.0,
    "long": 0.0
  },
  {
    "stationName": "Heathrow Terminal No 4 Lt",
    "crsCode": "ZHF",
    "tiplocCode": "",
    "lat": 0.0,
    "long": 0.0
  },
  {
    "stationName": "Heathrow T1234 Lt",
    "crsCode": "ZHJ",
    "tiplocCode": "HTRWUND",
    "lat": 0.0,
    "long": 0.0
  },
  {
    "stationName": "Heathrow Terminal 5 Lt",
    "crsCode": "ZHH",
    "tiplocCode": "",
    "lat": 0.0,
    "long": 0.0
  },
  {
    "stationName": "Southwark Lt",
    "crsCode": "ZSO",
    "tiplocCode": "",
    "lat": 0.0,
    "long": 0.0
  },
  {
    "stationName": "Bermondsey Lt",
    "crsCode": "ZEO",
    "tiplocCode": "BRMNDSY",
    "lat": 0.0,
    "long": 0.0
  },
  {
    "stationName": "North Greenwich Lt",
    "crsCode": "NGR",
    "tiplocCode": "",
    "lat": 0.0,
    "long": 0.0
  },
  {
    "stationName": "Lille Flandres",
    "crsCode": "LIL",
    "tiplocCode": "LILLEFL",
    "lat": 0.0,
    "long": 0.0
  },
  {
    "stationName": "Frethun",
    "crsCode": "FRH",
    "tiplocCode": "CALAFGV",
    "lat": 0.0,
    "long": 0.0
  },
  {
    "stationName": "Lille Nord-Europe",
    "crsCode": "LIU",
    "tiplocCode": "LILLE",
    "lat": 0.0,
    "long": 0.0
  },
  {
    "stationName": "Duisburg Hbf",
    "crsCode": "DUI",
    "tiplocCode": "DUISBRG",
    "lat": 0.0,
    "long": 0.0
  },
  {
    "stationName": "Boulogne Maritime",
    "crsCode": "BOU",
    "tiplocCode": "BOLGNEM",
    "lat": 0.0,
    "long": 0.0
  },
  {
    "stationName": "Calais Maritime",
    "crsCode": "CAL",
    "tiplocCode": "CALAISM",
    "lat": 0.0,
    "long": 0.0
  },
  {
    "stationName": "Dieppe",
    "crsCode": "DIE",
    "tiplocCode": "DIEPPE",
    "lat": 49.9214244,
    "long": 1.0811422
  },
  {
    "stationName": "Hoek Van Holland",
    "crsCode": "HVH",
    "tiplocCode": "HOEKVHL",
    "lat": 0.0,
    "long": 0.0
  },
  {
    "stationName": "Oostende",
    "crsCode": "OOS",
    "tiplocCode": "OOSTEND",
    "lat": 0.0,
    "long": 0.0
  },
  {
    "stationName": "Paris Nord",
    "crsCode": "PBN",
    "tiplocCode": "PARISND",
    "lat": 0.0,
    "long": 0.0
  },
  {
    "stationName": "Paris St. Lazare",
    "crsCode": "PAZ",
    "tiplocCode": "PARISLZ",
    "lat": 0.0,
    "long": 0.0
  },
  {
    "stationName": "Bruxelles Midi",
    "crsCode": "BXS",
    "tiplocCode": "BRUXMID",
    "lat": 0.0,
    "long": 0.0
  },
  {
    "stationName": "Amsterdam Cs",
    "crsCode": "AMS",
    "tiplocCode": "AMSTDAM",
    "lat": 0.0,
    "long": 0.0
  },
  {
    "stationName": "Koln Hbf",
    "crsCode": "KOL",
    "tiplocCode": "",
    "lat": 0.0,
    "long": 0.0
  },
  {
    "stationName": "Roosendaal",
    "crsCode": "RDL",
    "tiplocCode": "ROSNDAL",
    "lat": 0.0,
    "long": 0.0
  },
  {
    "stationName": "Amiens",
    "crsCode": "AMI",
    "tiplocCode": "AMIENS",
    "lat": 0.0,
    "long": 0.0
  },
  {
    "stationName": "Rouen D.D.",
    "crsCode": "RRD",
    "tiplocCode": "ROUENDD",
    "lat": 0.0,
    "long": 0.0
  },
  {
    "stationName": "Ascot Road Lt",
    "crsCode": "ZAO",
    "tiplocCode": "",
    "lat": 0.0,
    "long": 0.0
  },
  {
    "stationName": "Watford Hospital Lt",
    "crsCode": "ZVR",
    "tiplocCode": "",
    "lat": 0.0,
    "long": 0.0
  },
  {
    "stationName": "Nine Elms Lt",
    "crsCode": "ZNM",
    "tiplocCode": "",
    "lat": 0.0,
    "long": 0.0
  },
  {
    "stationName": "Battersea Lt",
    "crsCode": "ZLT",
    "tiplocCode": "",
    "lat": 0.0,
    "long": 0.0
  },
  {
    "stationName": "Luton Bus",
    "crsCode": "LUB",
    "tiplocCode": "LUTOBUS",
    "lat": 0.0,
    "long": 0.0
  },
  {
    "stationName": "Canary Wharf Dlr",
    "crsCode": "ZCZ",
    "tiplocCode": "",
    "lat": 0.0,
    "long": 0.0
  },
  {
    "stationName": "Docklands Zone 34",
    "crsCode": "ZDC",
    "tiplocCode": "",
    "lat": 0.0,
    "long": 0.0
  },
  {
    "stationName": "All Saints  Dlr",
    "crsCode": "ZAS",
    "tiplocCode": "",
    "lat": 0.0,
    "long": 0.0
  },
  {
    "stationName": "Bow Church  Dlr",
    "crsCode": "ZBC",
    "tiplocCode": "",
    "lat": 0.0,
    "long": 0.0
  },
  {
    "stationName": "Canary Wharf Lt",
    "crsCode": "ZQC",
    "tiplocCode": "",
    "lat": 0.0,
    "long": 0.0
  },
  {
    "stationName": "Langdon Park Lt",
    "crsCode": "ZLP",
    "tiplocCode": "",
    "lat": 0.0,
    "long": 0.0
  },
  {
    "stationName": "Crossharbour  Dlr",
    "crsCode": "ZCH",
    "tiplocCode": "",
    "lat": 0.0,
    "long": 0.0
  },
  {
    "stationName": "Heron Quays",
    "crsCode": "ZHQ",
    "tiplocCode": "",
    "lat": 51.5029301,
    "long": -0.0215033
  },
  {
    "stationName": "Island Gardens  Dlr",
    "crsCode": "ZIG",
    "tiplocCode": "",
    "lat": 0.0,
    "long": 0.0
  },
  {
    "stationName": "Mudchute  Dlr",
    "crsCode": "ZMU",
    "tiplocCode": "",
    "lat": 0.0,
    "long": 0.0
  },
  {
    "stationName": "Poplar  Dlr",
    "crsCode": "ZPL",
    "tiplocCode": "",
    "lat": 0.0,
    "long": 0.0
  },
  {
    "stationName": "Pudding Mill Lane  Dlr",
    "crsCode": "ZPM",
    "tiplocCode": "",
    "lat": 0.0,
    "long": 0.0
  },
  {
    "stationName": "Shadwell  Dlr",
    "crsCode": "ZDX",
    "tiplocCode": "",
    "lat": 0.0,
    "long": 0.0
  },
  {
    "stationName": "South Quay  Dlr",
    "crsCode": "ZSQ",
    "tiplocCode": "",
    "lat": 0.0,
    "long": 0.0
  },
  {
    "stationName": "Limehouse Dlr",
    "crsCode": "ZLH",
    "tiplocCode": "",
    "lat": 0.0,
    "long": 0.0
  },
  {
    "stationName": "Stratford  Dlr",
    "crsCode": "ZTR",
    "tiplocCode": "",
    "lat": 0.0,
    "long": 0.0
  },
  {
    "stationName": "Tower Gateway Dlr",
    "crsCode": "ZTG",
    "tiplocCode": "TWGWDLR",
    "lat": 0.0,
    "long": 0.0
  },
  {
    "stationName": "Westferry  Dlr",
    "crsCode": "ZFW",
    "tiplocCode": "",
    "lat": 0.0,
    "long": 0.0
  },
  {
    "stationName": "West India Quay  Dlr",
    "crsCode": "ZIQ",
    "tiplocCode": "",
    "lat": 0.0,
    "long": 0.0
  },
  {
    "stationName": "Devons Road  Dlr",
    "crsCode": "ZDR",
    "tiplocCode": "",
    "lat": 0.0,
    "long": 0.0
  },
  {
    "stationName": "Docklands Zone 2",
    "crsCode": "ZDL",
    "tiplocCode": "",
    "lat": 0.0,
    "long": 0.0
  },
  {
    "stationName": "Dun Loaghaire",
    "crsCode": "DLO",
    "tiplocCode": "DUNLGHR",
    "lat": 0.0,
    "long": 0.0
  },
  {
    "stationName": "Docklands Zone 3",
    "crsCode": "ZDZ",
    "tiplocCode": "",
    "lat": 0.0,
    "long": 0.0
  },
  {
    "stationName": "Docklands Zone 4",
    "crsCode": "ZDA",
    "tiplocCode": "",
    "lat": 0.0,
    "long": 0.0
  },
  {
    "stationName": "Bourg St Maurice",
    "crsCode": "XIB",
    "tiplocCode": "BORGSTM",
    "lat": 0.0,
    "long": 0.0
  },
  {
    "stationName": "Meldon Quarry",
    "crsCode": "MDQ",
    "tiplocCode": "",
    "lat": 0.0,
    "long": 0.0
  },
  {
    "stationName": "Cutty Sark - Mar Greenwich Dlr",
    "crsCode": "ZAA",
    "tiplocCode": "",
    "lat": 0.0,
    "long": 0.0
  },
  {
    "stationName": "Gravesend Ferry Terminal",
    "crsCode": "GFY",
    "tiplocCode": "CATZ072",
    "lat": 0.0,
    "long": 0.0
  },
  {
    "stationName": "Blackwall Dlr",
    "crsCode": "ZBH",
    "tiplocCode": "",
    "lat": 0.0,
    "long": 0.0
  },
  {
    "stationName": "East India Dlr",
    "crsCode": "ZEI",
    "tiplocCode": "",
    "lat": 0.0,
    "long": 0.0
  },
  {
    "stationName": "Canning Town Lt",
    "crsCode": "ZCB",
    "tiplocCode": "",
    "lat": 0.0,
    "long": 0.0
  },
  {
    "stationName": "Thames Wharf Dlr",
    "crsCode": "ZTA",
    "tiplocCode": "",
    "lat": 0.0,
    "long": 0.0
  },
  {
    "stationName": "Royal Victoria Dlr",
    "crsCode": "ZRB",
    "tiplocCode": "",
    "lat": 0.0,
    "long": 0.0
  },
  {
    "stationName": "Custom House Dlr",
    "crsCode": "ZCE",
    "tiplocCode": "",
    "lat": 0.0,
    "long": 0.0
  },
  {
    "stationName": "Prince Regent Dlr",
    "crsCode": "ZPD",
    "tiplocCode": "",
    "lat": 0.0,
    "long": 0.0
  },
  {
    "stationName": "Star Lane Dlr",
    "crsCode": "ZCJ",
    "tiplocCode": "",
    "lat": 0.0,
    "long": 0.0
  },
  {
    "stationName": "Royal Albert Dlr",
    "crsCode": "ZRC",
    "tiplocCode": "",
    "lat": 0.0,
    "long": 0.0
  },
  {
    "stationName": "Beckton Park Dlr",
    "crsCode": "ZBJ",
    "tiplocCode": "",
    "lat": 0.0,
    "long": 0.0
  },
  {
    "stationName": "Portsmouth Cont Ferry Port",
    "crsCode": "PCF",
    "tiplocCode": "POMOCFP",
    "lat": 0.0,
    "long": 0.0
  },
  {
    "stationName": "Cyprus Dlr",
    "crsCode": "ZCQ",
    "tiplocCode": "",
    "lat": 0.0,
    "long": 0.0
  },
  {
    "stationName": "Gallions Reach Dlr",
    "crsCode": "ZGC",
    "tiplocCode": "",
    "lat": 0.0,
    "long": 0.0
  },
  {
    "stationName": "Beckton Dlr",
    "crsCode": "ZTN",
    "tiplocCode": "",
    "lat": 0.0,
    "long": 0.0
  },
  {
    "stationName": "Deptford Bridge Dlr",
    "crsCode": "ZDB",
    "tiplocCode": "DPTFBD",
    "lat": 0.0,
    "long": 0.0
  },
  {
    "stationName": "Elverson Road Dlr",
    "crsCode": "ZAC",
    "tiplocCode": "",
    "lat": 0.0,
    "long": 0.0
  },
  {
    "stationName": "Dun Laoghaire Malin",
    "crsCode": "DDB",
    "tiplocCode": "DUNLHRM",
    "lat": 0.0,
    "long": 0.0
  },
  {
    "stationName": "Greenwich Dlr",
    "crsCode": "ZGN",
    "tiplocCode": "",
    "lat": 0.0,
    "long": 0.0
  },
  {
    "stationName": "Lewisham Dlr",
    "crsCode": "ZBV",
    "tiplocCode": "",
    "lat": 51.4649887,
    "long": -0.0130109
  },
  {
    "stationName": "Alvechurch Red Lion Pub",
    "crsCode": "ARP",
    "tiplocCode": "ALVCRLP",
    "lat": 0.0,
    "long": 0.0
  },
  {
    "stationName": "Leigh (Fleur-De-Lis P.H.)",
    "crsCode": "LFL",
    "tiplocCode": "LEIGBUS",
    "lat": 0.0,
    "long": 0.0
  },
  {
    "stationName": "London Road (Ditchling Rise)",
    "crsCode": "LRR",
    "tiplocCode": "BRGHBUS",
    "lat": 0.0,
    "long": 0.0
  },
  {
    "stationName": "Preston Park (London Road)",
    "crsCode": "PPR",
    "tiplocCode": "PRSPBUS",
    "lat": 0.0,
    "long": 0.0
  },
  {
    "stationName": "Winchelsea - New Inn",
    "crsCode": "WNI",
    "tiplocCode": "WINCNEW",
    "lat": 0.0,
    "long": 0.0
  },
  {
    "stationName": "Arundel London Road",
    "crsCode": "ARZ",
    "tiplocCode": "ARUNLRD",
    "lat": 0.0,
    "long": 0.0
  },
  {
    "stationName": "Cheltenham Racecourse",
    "crsCode": "CRC",
    "tiplocCode": "CHLTRAC",
    "lat": 51.9244805,
    "long": -2.0675337
  },
  {
    "stationName": "Armadale",
    "crsCode": "ARM",
    "tiplocCode": "ARMDALE",
    "lat": 55.8865302,
    "long": -3.6929618
  },
  {
    "stationName": "Blackridge",
    "crsCode": "BKR",
    "tiplocCode": "BLKRDGE",
    "lat": 55.8843825,
    "long": -3.7502801
  },
  {
    "stationName": "Caldercruix",
    "crsCode": "CAC",
    "tiplocCode": "CLDRCRX",
    "lat": 55.8880483,
    "long": -3.8887176
  },
  {
    "stationName": "Severn Tunnel Jn Rogiet Pool",
    "crsCode": "SRB",
    "tiplocCode": "SEVTROG",
    "lat": 0.0,
    "long": 0.0
  },
  {
    "stationName": "Reading Green Park",
    "crsCode": "RGP",
    "tiplocCode": "REDGGPK",
    "lat": 51.4265936,
    "long": -1.0013637
  },
  {
    "stationName": "Liverpool John Lennon Airport",
    "crsCode": "LJL",
    "tiplocCode": "LVRPJLA",
    "lat": 0.0,
    "long": 0.0
  },
  {
    "stationName": "Drayton Manor Park",
    "crsCode": "DRY",
    "tiplocCode": "DYMANOR",
    "lat": 0.0,
    "long": 0.0
  },
  {
    "stationName": "Bescot Stadium",
    "crsCode": "BSC",
    "tiplocCode": "BSCTSTA",
    "lat": 52.5630317,
    "long": -1.9910802
  },
  {
    "stationName": "Bescot Msh Yd Frt",
    "crsCode": "XBY",
    "tiplocCode": "BSCTYD",
    "lat": 0.0,
    "long": 0.0
  },
  {
    "stationName": "Aston Birmingham",
    "crsCode": "AST",
    "tiplocCode": "ASTON",
    "lat": 0.0,
    "long": 0.0
  },
  {
    "stationName": "Birmingham Snow Hill",
    "crsCode": "BSW",
    "tiplocCode": "BHAMSNH",
    "lat": 52.4837984,
    "long": -1.8996588
  },
  {
    "stationName": "Tame Bridge Pkwy",
    "crsCode": "TAB",
    "tiplocCode": "TAMEBDG",
    "lat": 0.0,
    "long": 0.0
  },
  {
    "stationName": "Witton Birmingham",
    "crsCode": "WTT",
    "tiplocCode": "WITTON",
    "lat": 0.0,
    "long": 0.0
  },
  {
    "stationName": "Cannock",
    "crsCode": "CAO",
    "tiplocCode": "CNCK",
    "lat": 52.6860971,
    "long": -2.0223507
  },
  {
    "stationName": "Landywood",
    "crsCode": "LAW",
    "tiplocCode": "LNDYW",
    "lat": 52.656769,
    "long": -2.0207336
  },
  {
    "stationName": "Bloxwich North",
    "crsCode": "BWN",
    "tiplocCode": "BLOXN",
    "lat": 52.6253229,
    "long": -2.0175382
  },
  {
    "stationName": "Haggerston",
    "crsCode": "HGG",
    "tiplocCode": "HAGGERS",
    "lat": 51.5386574,
    "long": -0.0755835
  },
  {
    "stationName": "Hoxton",
    "crsCode": "HOX",
    "tiplocCode": "HOXTON",
    "lat": 51.5315917,
    "long": -0.0756539
  },
  {
    "stationName": "Shoreditch High Street",
    "crsCode": "SDC",
    "tiplocCode": "SHRDHST",
    "lat": 51.5232534,
    "long": -0.0744674
  },
  {
    "stationName": "Coventry",
    "crsCode": "COV",
    "tiplocCode": "COVNTRY",
    "lat": 52.400739,
    "long": -1.5135474
  },
  {
    "stationName": "Hampton-In-Arden",
    "crsCode": "HIA",
    "tiplocCode": "HMPTNIA",
    "lat": 52.4286358,
    "long": -1.6997231
  },
  {
    "stationName": "Marston Green",
    "crsCode": "MGN",
    "tiplocCode": "MRSTNGR",
    "lat": 52.4668809,
    "long": -1.7550948
  },
  {
    "stationName": "Tile Hill",
    "crsCode": "THL",
    "tiplocCode": "TILEH",
    "lat": 52.3951906,
    "long": -1.5972825
  },
  {
    "stationName": "Adderley Park Birmingham",
    "crsCode": "ADD",
    "tiplocCode": "ADERLYP",
    "lat": 0.0,
    "long": 0.0
  },
  {
    "stationName": "Rotherhithe",
    "crsCode": "ROE",
    "tiplocCode": "RTHERHI",
    "lat": 51.5008237,
    "long": -0.0519666
  },
  {
    "stationName": "Duddeston",
    "crsCode": "DUD",
    "tiplocCode": "DUDESTN",
    "lat": 52.4884888,
    "long": -1.8712807
  },
  {
    "stationName": "Erdington",
    "crsCode": "ERD",
    "tiplocCode": "ERDNGTN",
    "lat": 52.5283826,
    "long": -1.8394444
  },
  {
    "stationName": "Four Oaks",
    "crsCode": "FOK",
    "tiplocCode": "FOUROKS",
    "lat": 52.5795454,
    "long": -1.8280314
  },
  {
    "stationName": "Stechford",
    "crsCode": "SCF",
    "tiplocCode": "STECHFD",
    "lat": 52.4851563,
    "long": -1.8110345
  },
  {
    "stationName": "Sutton Coldfield",
    "crsCode": "SUT",
    "tiplocCode": "SUTCO",
    "lat": 52.564801,
    "long": -1.8251772
  },
  {
    "stationName": "Berkswell",
    "crsCode": "BKW",
    "tiplocCode": "BKSWELL",
    "lat": 52.3960838,
    "long": -1.6417904
  },
  {
    "stationName": "Kingsbury Junction",
    "crsCode": "XKI",
    "tiplocCode": "KNGSBYJ",
    "lat": 0.0,
    "long": 0.0
  },
  {
    "stationName": "Wilnecote",
    "crsCode": "WNE",
    "tiplocCode": "WILNECT",
    "lat": 52.6106234,
    "long": -1.6797007
  },
  {
    "stationName": "Long Buckby",
    "crsCode": "LBK",
    "tiplocCode": "LNGBKBY",
    "lat": 52.2944142,
    "long": -1.0860558
  },
  {
    "stationName": "Northampton",
    "crsCode": "NMP",
    "tiplocCode": "NMPTN",
    "lat": 52.2373719,
    "long": -0.9069697
  },
  {
    "stationName": "Northampton Emd",
    "crsCode": "XND",
    "tiplocCode": "NMPTEMD",
    "lat": 0.0,
    "long": 0.0
  },
  {
    "stationName": "London Br",
    "crsCode": "LON",
    "tiplocCode": "CATZ148",
    "lat": 0.0,
    "long": 0.0
  },
  {
    "stationName": "Atherstone",
    "crsCode": "ATH",
    "tiplocCode": "ATHRSTN",
    "lat": 52.5784071,
    "long": -1.5522587
  },
  {
    "stationName": "Nuneaton Trent Valley",
    "crsCode": "NUN",
    "tiplocCode": "NNTN",
    "lat": 0.0,
    "long": 0.0
  },
  {
    "stationName": "Polesworth",
    "crsCode": "PSW",
    "tiplocCode": "PWTH",
    "lat": 52.6258348,
    "long": -1.6107049
  },
  {
    "stationName": "Shadwell",
    "crsCode": "SDE",
    "tiplocCode": "SHADWEL",
    "lat": 51.5117593,
    "long": -0.0554867
  },
  {
    "stationName": "Surrey Quays",
    "crsCode": "SQE",
    "tiplocCode": "SURREYQ",
    "lat": 51.4934207,
    "long": -0.0478319
  },
  {
    "stationName": "Rugeley Trent Valley",
    "crsCode": "RGL",
    "tiplocCode": "RUGL",
    "lat": 52.7696788,
    "long": -1.9299278
  },
  {
    "stationName": "Colwich",
    "crsCode": "XCO",
    "tiplocCode": "COLWICH",
    "lat": 0.0,
    "long": 0.0
  },
  {
    "stationName": "Wapping",
    "crsCode": "WPE",
    "tiplocCode": "WAPPING",
    "lat": 51.5044344,
    "long": -0.0560206
  },
  {
    "stationName": "Rugby",
    "crsCode": "RUG",
    "tiplocCode": "RUGBY",
    "lat": 52.3790353,
    "long": -1.2502743
  },
  {
    "stationName": "Weedon",
    "crsCode": "XWZ",
    "tiplocCode": "WEEDON",
    "lat": 0.0,
    "long": 0.0
  },
  {
    "stationName": "Aylesbury Vale Parkway",
    "crsCode": "AVP",
    "tiplocCode": "AYLSPWY",
    "lat": 51.8312778,
    "long": -0.859831
  },
  {
    "stationName": "Barnt Green",
    "crsCode": "BTG",
    "tiplocCode": "BGRN",
    "lat": 52.3609702,
    "long": -1.9924997
  },
  {
    "stationName": "Jewellery Quarter",
    "crsCode": "JEQ",
    "tiplocCode": "BHAMJEW",
    "lat": 52.4896794,
    "long": -1.913704
  },
  {
    "stationName": "Landor Street Junction",
    "crsCode": "XLX",
    "tiplocCode": "LNDRSTJ",
    "lat": 0.0,
    "long": 0.0
  },
  {
    "stationName": "Selly Oak",
    "crsCode": "SLY",
    "tiplocCode": "SELYOAK",
    "lat": 52.4418625,
    "long": -1.9355913
  },
  {
    "stationName": "Park Lane Junction",
    "crsCode": "XIA",
    "tiplocCode": "PLNEJT",
    "lat": 0.0,
    "long": 0.0
  },
  {
    "stationName": "Seahouses Bus",
    "crsCode": "SIB",
    "tiplocCode": "SEHOBUS",
    "lat": 0.0,
    "long": 0.0
  },
  {
    "stationName": "Kings Norton",
    "crsCode": "KNN",
    "tiplocCode": "KNORTON",
    "lat": 52.4142407,
    "long": -1.932615
  },
  {
    "stationName": "Longbridge",
    "crsCode": "LOB",
    "tiplocCode": "LONB",
    "lat": 52.3970107,
    "long": -1.9807611
  },
  {
    "stationName": "Northfield",
    "crsCode": "NFD",
    "tiplocCode": "NRTF",
    "lat": 52.4082951,
    "long": -1.9651246
  },
  {
    "stationName": "Bournville",
    "crsCode": "BRV",
    "tiplocCode": "BOURNVL",
    "lat": 52.4273889,
    "long": -1.9266683
  },
  {
    "stationName": "Smethwick Galton Bridge",
    "crsCode": "SGB",
    "tiplocCode": "GALTINT",
    "lat": 52.5021195,
    "long": -1.9804372
  },
  {
    "stationName": "Galton Interchange L.L",
    "crsCode": "XGQ",
    "tiplocCode": "GALTILL",
    "lat": 0.0,
    "long": 0.0
  },
  {
    "stationName": "Galton Junction",
    "crsCode": "XGJ",
    "tiplocCode": "GALTONJ",
    "lat": 0.0,
    "long": 0.0
  },
  {
    "stationName": "Water Orton",
    "crsCode": "WTO",
    "tiplocCode": "WTRORTN",
    "lat": 52.5185309,
    "long": -1.743655
  },
  {
    "stationName": "Whitacre Junction",
    "crsCode": "XQW",
    "tiplocCode": "WACRJN",
    "lat": 0.0,
    "long": 0.0
  },
  {
    "stationName": "Portway Park & Ride",
    "crsCode": "PRI",
    "tiplocCode": "PTWYPR",
    "lat": 0.0,
    "long": 0.0
  },
  {
    "stationName": "Birmingham New Street",
    "crsCode": "BHM",
    "tiplocCode": "BHAMNWS",
    "lat": 52.4776459,
    "long": -1.898694
  },
  {
    "stationName": "Proof House Jn",
    "crsCode": "XOZ",
    "tiplocCode": "PROOFHJ",
    "lat": 0.0,
    "long": 0.0
  },
  {
    "stationName": "Perry Barr",
    "crsCode": "PRY",
    "tiplocCode": "PRYBR",
    "lat": 52.516406,
    "long": -1.9023511
  },
  {
    "stationName": "Perry Barr North Junction",
    "crsCode": "XRA",
    "tiplocCode": "PRYBRNJ",
    "lat": 0.0,
    "long": 0.0
  },
  {
    "stationName": "Canley",
    "crsCode": "CNL",
    "tiplocCode": "CANLEY",
    "lat": 52.3993806,
    "long": -1.5475333
  },
  {
    "stationName": "Chester Road",
    "crsCode": "CRD",
    "tiplocCode": "CHSRD",
    "lat": 52.5359496,
    "long": -1.8324115
  },
  {
    "stationName": "Gravelly Hill",
    "crsCode": "GVH",
    "tiplocCode": "GRAVLYH",
    "lat": 52.5153884,
    "long": -1.8527437
  },
  {
    "stationName": "Lea Hall",
    "crsCode": "LEH",
    "tiplocCode": "LEAHALL",
    "lat": 52.4805217,
    "long": -1.786031
  },
  {
    "stationName": "Rugeley Town",
    "crsCode": "RGT",
    "tiplocCode": "RUGLTWN",
    "lat": 52.7546597,
    "long": -1.9369103
  },
  {
    "stationName": "Wylde Green",
    "crsCode": "WYL",
    "tiplocCode": "WYGN",
    "lat": 52.5456367,
    "long": -1.8314515
  },
  {
    "stationName": "Bloxwich",
    "crsCode": "BLX",
    "tiplocCode": "BLOXWCH",
    "lat": 52.6184226,
    "long": -2.0116755
  },
  {
    "stationName": "Coseley",
    "crsCode": "CSY",
    "tiplocCode": "COSELEY",
    "lat": 52.5453191,
    "long": -2.0858098
  },
  {
    "stationName": "Leeds Castle Bus",
    "crsCode": "LCA",
    "tiplocCode": "CATZ014",
    "lat": 0.0,
    "long": 0.0
  },
  {
    "stationName": "Hamstead",
    "crsCode": "HSD",
    "tiplocCode": "HAMSTED",
    "lat": 52.5309945,
    "long": -1.9288687
  },
  {
    "stationName": "Hednesford",
    "crsCode": "HNF",
    "tiplocCode": "HDNS",
    "lat": 52.7099433,
    "long": -2.0019759
  },
  {
    "stationName": "Sandwell & Dudley",
    "crsCode": "SAD",
    "tiplocCode": "SNDWDUD",
    "lat": 0.0,
    "long": 0.0
  },
  {
    "stationName": "Smethwick Rolfe Street",
    "crsCode": "SMR",
    "tiplocCode": "SMTHKRS",
    "lat": 52.4962726,
    "long": -1.9693703
  },
  {
    "stationName": "South Junction",
    "crsCode": "XOS",
    "tiplocCode": "SOHOSJ",
    "lat": 0.0,
    "long": 0.0
  },
  {
    "stationName": "Soho M&Ee Maintenance Depot",
    "crsCode": "XSZ",
    "tiplocCode": "SOHODED",
    "lat": 0.0,
    "long": 0.0
  },
  {
    "stationName": "Tipton",
    "crsCode": "TIP",
    "tiplocCode": "TIPTON",
    "lat": 52.530527,
    "long": -2.0657314
  },
  {
    "stationName": "Bedworth",
    "crsCode": "BEH",
    "tiplocCode": "BEDWRTH",
    "lat": 52.4794836,
    "long": -1.4675162
  },
  {
    "stationName": "Bushbury",
    "crsCode": "XBJ",
    "tiplocCode": "BSBYJN",
    "lat": 0.0,
    "long": 0.0
  },
  {
    "stationName": "Blake Street",
    "crsCode": "BKT",
    "tiplocCode": "BLKST",
    "lat": 52.6043776,
    "long": -1.8446597
  },
  {
    "stationName": "Lichfield City",
    "crsCode": "LIC",
    "tiplocCode": "LCHC",
    "lat": 52.6802201,
    "long": -1.8251247
  },
  {
    "stationName": "Shenstone",
    "crsCode": "SEN",
    "tiplocCode": "SHNS",
    "lat": 52.6392328,
    "long": -1.844343
  },
  {
    "stationName": "Butlers Lane",
    "crsCode": "BUL",
    "tiplocCode": "BTLRSLA",
    "lat": 52.5926207,
    "long": -1.8383926
  },
  {
    "stationName": "Penkridge",
    "crsCode": "PKG",
    "tiplocCode": "PNKRDG",
    "lat": 52.7236965,
    "long": -2.1193938
  },
  {
    "stationName": "Alvechurch",
    "crsCode": "ALV",
    "tiplocCode": "ALVCHRC",
    "lat": 52.3468326,
    "long": -1.9679677
  },
  {
    "stationName": "Redditch",
    "crsCode": "RDC",
    "tiplocCode": "RDIT",
    "lat": 52.306318,
    "long": -1.9455671
  },
  {
    "stationName": "Dudley Port",
    "crsCode": "DDP",
    "tiplocCode": "DUDLPT",
    "lat": 52.524461,
    "long": -2.0492538
  },
  {
    "stationName": "Birmingham International",
    "crsCode": "BHI",
    "tiplocCode": "BHAMINT",
    "lat": 52.450776,
    "long": -1.7253182
  },
  {
    "stationName": "Birmingham Int'L Bus Station",
    "crsCode": "XNE",
    "tiplocCode": "BHAMNEC",
    "lat": 0.0,
    "long": 0.0
  },
  {
    "stationName": "Birmingham Airport (Bus)",
    "crsCode": "XFG",
    "tiplocCode": "BHAMAIR",
    "lat": 0.0,
    "long": 0.0
  },
  {
    "stationName": "Walsall",
    "crsCode": "WSL",
    "tiplocCode": "WALSALL",
    "lat": 52.5841365,
    "long": -1.9852679
  },
  {
    "stationName": "Wolverhampton",
    "crsCode": "WVH",
    "tiplocCode": "WVRMPTN",
    "lat": 52.5879884,
    "long": -2.120242
  },
  {
    "stationName": "Portobello Jn (West Mids)",
    "crsCode": "XPJ",
    "tiplocCode": "PBLJWM",
    "lat": 0.0,
    "long": 0.0
  },
  {
    "stationName": "Goostrey",
    "crsCode": "GTR",
    "tiplocCode": "GOOSTRY",
    "lat": 53.2225699,
    "long": -2.3263394
  },
  {
    "stationName": "Holmes Chapel",
    "crsCode": "HCH",
    "tiplocCode": "HCHP",
    "lat": 53.1992752,
    "long": -2.3511004
  },
  {
    "stationName": "Alsager",
    "crsCode": "ASG",
    "tiplocCode": "ALSAGER",
    "lat": 53.0930252,
    "long": -2.2988432
  },
  {
    "stationName": "Congleton",
    "crsCode": "CNG",
    "tiplocCode": "CONGLTN",
    "lat": 53.1577982,
    "long": -2.1924594
  },
  {
    "stationName": "Kidsgrove",
    "crsCode": "KDG",
    "tiplocCode": "KIDSGRV",
    "lat": 53.0864206,
    "long": -2.244923
  },
  {
    "stationName": "Birches Head",
    "crsCode": "BHH",
    "tiplocCode": "BRCHEAD",
    "lat": 0.0,
    "long": 0.0
  },
  {
    "stationName": "Basford Hall Yard (Fl)",
    "crsCode": "XXM",
    "tiplocCode": "CREWBHM",
    "lat": 0.0,
    "long": 0.0
  },
  {
    "stationName": "Crewe",
    "crsCode": "CRE",
    "tiplocCode": "CREWE",
    "lat": 53.0889629,
    "long": -2.4326364
  },
  {
    "stationName": "South Yard Chs",
    "crsCode": "XCT",
    "tiplocCode": "CREWESY",
    "lat": 0.0,
    "long": 0.0
  },
  {
    "stationName": "Crewe Carriage Sidings",
    "crsCode": "XCR",
    "tiplocCode": "CREWECS",
    "lat": 0.0,
    "long": 0.0
  },
  {
    "stationName": "Nantwich",
    "crsCode": "NAN",
    "tiplocCode": "NANTWCH",
    "lat": 53.0635485,
    "long": -2.5187309
  },
  {
    "stationName": "Sandbach",
    "crsCode": "SDB",
    "tiplocCode": "SBCH",
    "lat": 53.1502448,
    "long": -2.3937143
  },
  {
    "stationName": "High Wycombe High St (Bus)",
    "crsCode": "HWS",
    "tiplocCode": "HWYCMHS",
    "lat": 0.0,
    "long": 0.0
  },
  {
    "stationName": "Stafford",
    "crsCode": "STA",
    "tiplocCode": "STAFFRD",
    "lat": 52.8035815,
    "long": -2.1226262
  },
  {
    "stationName": "Alton Towers",
    "crsCode": "ATW",
    "tiplocCode": "ALTT",
    "lat": 0.0,
    "long": 0.0
  },
  {
    "stationName": "Barlaston",
    "crsCode": "BRT",
    "tiplocCode": "BARLSTN",
    "lat": 0.0,
    "long": 0.0
  },
  {
    "stationName": "Blythe Bridge",
    "crsCode": "BYB",
    "tiplocCode": "BLYBDGE",
    "lat": 52.9678303,
    "long": -2.066925
  },
  {
    "stationName": "Lichfield Trent Valley",
    "crsCode": "LTV",
    "tiplocCode": "LCHTTVL",
    "lat": 52.6868262,
    "long": -1.7998262
  },
  {
    "stationName": "Lichfield North Jn (Ll)",
    "crsCode": "XOI",
    "tiplocCode": "LCHTNJ",
    "lat": 0.0,
    "long": 0.0
  },
  {
    "stationName": "Lichfield T V High Level",
    "crsCode": "LIF",
    "tiplocCode": "LCHTTVH",
    "lat": 52.686653,
    "long": -1.799464
  },
  {
    "stationName": "Leek",
    "crsCode": "LEK",
    "tiplocCode": "LEEK",
    "lat": 0.0,
    "long": 0.0
  },
  {
    "stationName": "Longport",
    "crsCode": "LPT",
    "tiplocCode": "LNGP",
    "lat": 53.0419934,
    "long": -2.216635
  },
  {
    "stationName": "Longton",
    "crsCode": "LGN",
    "tiplocCode": "LNTN",
    "lat": 52.9900417,
    "long": -2.1372966
  },
  {
    "stationName": "Stoke-On-Trent",
    "crsCode": "SOT",
    "tiplocCode": "STOKEOT",
    "lat": 53.0079887,
    "long": -2.1810781
  },
  {
    "stationName": "Stone",
    "crsCode": "SNE",
    "tiplocCode": "STONE",
    "lat": 52.9084696,
    "long": -2.1554718
  },
  {
    "stationName": "Tamworth",
    "crsCode": "TAM",
    "tiplocCode": "TMWTHLL",
    "lat": 52.6374678,
    "long": -1.6865886
  },
  {
    "stationName": "Tamworth High Level",
    "crsCode": "TAH",
    "tiplocCode": "TMWTHHL",
    "lat": 52.637576,
    "long": -1.686348
  },
  {
    "stationName": "Amington Jn",
    "crsCode": "XIM",
    "tiplocCode": "AMNGTNJ",
    "lat": 0.0,
    "long": 0.0
  },
  {
    "stationName": "Barking Riverside",
    "crsCode": "BGV",
    "tiplocCode": "BARKRIV",
    "lat": 51.5195582,
    "long": 0.1160126
  },
  {
    "stationName": "Uttoxeter",
    "crsCode": "UTT",
    "tiplocCode": "UTOXETR",
    "lat": 52.89681,
    "long": -1.856515
  },
  {
    "stationName": "Prees",
    "crsCode": "PRS",
    "tiplocCode": "PREES",
    "lat": 52.8994613,
    "long": -2.6895572
  },
  {
    "stationName": "Wem",
    "crsCode": "WEM",
    "tiplocCode": "WEMM",
    "lat": 52.8561108,
    "long": -2.7182651
  },
  {
    "stationName": "Whitchurch (Shropshire)",
    "crsCode": "WTC",
    "tiplocCode": "WCHR",
    "lat": 0.0,
    "long": 0.0
  },
  {
    "stationName": "Wrenbury",
    "crsCode": "WRE",
    "tiplocCode": "WRENBRY",
    "lat": 53.0195948,
    "long": -2.5956111
  },
  {
    "stationName": "Yorton",
    "crsCode": "YRT",
    "tiplocCode": "YORTON",
    "lat": 52.8090881,
    "long": -2.7363694
  },
  {
    "stationName": "Wedgwood",
    "crsCode": "WED",
    "tiplocCode": "WEDGWD",
    "lat": 0.0,
    "long": 0.0
  },
  {
    "stationName": "Bletchley",
    "crsCode": "BLY",
    "tiplocCode": "BLTCHLY",
    "lat": 51.9954534,
    "long": -0.7363
  },
  {
    "stationName": "Chs",
    "crsCode": "XBL",
    "tiplocCode": "BLTCCS",
    "lat": 0.0,
    "long": 0.0
  },
  {
    "stationName": "Bletchley Freight Sidings",
    "crsCode": "XYB",
    "tiplocCode": "BLTCYD",
    "lat": 0.0,
    "long": 0.0
  },
  {
    "stationName": "Bletchley T&Rs W/Shop Stf",
    "crsCode": "XBQ",
    "tiplocCode": "BLTCTMD",
    "lat": 0.0,
    "long": 0.0
  },
  {
    "stationName": "Brml Wolverton",
    "crsCode": "XGH",
    "tiplocCode": "WLVRTNW",
    "lat": 0.0,
    "long": 0.0
  },
  {
    "stationName": "Wolverton",
    "crsCode": "WOL",
    "tiplocCode": "WLVR",
    "lat": 52.065978,
    "long": -0.8047602
  },
  {
    "stationName": "Hanslope Junction",
    "crsCode": "XHN",
    "tiplocCode": "HANSLPJ",
    "lat": 0.0,
    "long": 0.0
  },
  {
    "stationName": "Carmd",
    "crsCode": "XCM",
    "tiplocCode": "CMDNCSD",
    "lat": 0.0,
    "long": 0.0
  },
  {
    "stationName": "Cheddington",
    "crsCode": "CED",
    "tiplocCode": "CHDNGTN",
    "lat": 51.8582898,
    "long": -0.6619813
  },
  {
    "stationName": "Leighton Buzzard",
    "crsCode": "LBZ",
    "tiplocCode": "LTNBZRD",
    "lat": 51.9161989,
    "long": -0.6773449
  },
  {
    "stationName": "Ledburn Junction",
    "crsCode": "XOD",
    "tiplocCode": "LEDBRNJ",
    "lat": 0.0,
    "long": 0.0
  },
  {
    "stationName": "Fenny Stratford",
    "crsCode": "FEN",
    "tiplocCode": "FSTR",
    "lat": 51.9999805,
    "long": -0.7179834
  },
  {
    "stationName": "Milton Keynes Central",
    "crsCode": "MKC",
    "tiplocCode": "MKNSCEN",
    "lat": 52.0342006,
    "long": -0.7748261
  },
  {
    "stationName": "Buckingham Tesco",
    "crsCode": "XEY",
    "tiplocCode": "BUCVBUS",
    "lat": 0.0,
    "long": 0.0
  },
  {
    "stationName": "Aspley Guise",
    "crsCode": "APG",
    "tiplocCode": "ASPLEYG",
    "lat": 52.0212048,
    "long": -0.6326933
  },
  {
    "stationName": "Bow Brickhill",
    "crsCode": "BWB",
    "tiplocCode": "BOWBRKH",
    "lat": 52.0042693,
    "long": -0.6962178
  },
  {
    "stationName": "Kempston Hardwick",
    "crsCode": "KMH",
    "tiplocCode": "KMPSTNH",
    "lat": 52.0919553,
    "long": -0.5039944
  },
  {
    "stationName": "Stewartby",
    "crsCode": "SWR",
    "tiplocCode": "STWRTBY",
    "lat": 52.0690354,
    "long": -0.5207575
  },
  {
    "stationName": "Berkhamsted",
    "crsCode": "BKM",
    "tiplocCode": "BERKHMD",
    "lat": 51.763646,
    "long": -0.5630828
  },
  {
    "stationName": "Hemel Hempstead",
    "crsCode": "HML",
    "tiplocCode": "HEMLHMP",
    "lat": 51.7422715,
    "long": -0.4911208
  },
  {
    "stationName": "Kings Langley",
    "crsCode": "KGL",
    "tiplocCode": "KLGL",
    "lat": 51.7064134,
    "long": -0.4378216
  },
  {
    "stationName": "Tring",
    "crsCode": "TRI",
    "tiplocCode": "TRING",
    "lat": 51.800672,
    "long": -0.6224578
  },
  {
    "stationName": "Bushey",
    "crsCode": "BSH",
    "tiplocCode": "BUSHEY",
    "lat": 51.6454831,
    "long": -0.3849194
  },
  {
    "stationName": "Croxley Green",
    "crsCode": "CRX",
    "tiplocCode": "CRXLYG",
    "lat": 0.0,
    "long": 0.0
  },
  {
    "stationName": "Harrow & Wealdstone",
    "crsCode": "HRW",
    "tiplocCode": "HROW",
    "lat": 51.5922178,
    "long": -0.3348748
  },
  {
    "stationName": "Hatch End",
    "crsCode": "HTE",
    "tiplocCode": "HTCHEND",
    "lat": 51.6095781,
    "long": -0.3687836
  },
  {
    "stationName": "Kenton",
    "crsCode": "KNT",
    "tiplocCode": "KTON",
    "lat": 51.5815255,
    "long": -0.3166378
  },
  {
    "stationName": "Watford Stadium",
    "crsCode": "WFS",
    "tiplocCode": "WATFDSM",
    "lat": 0.0,
    "long": 0.0
  },
  {
    "stationName": "Watford Junction",
    "crsCode": "WFJ",
    "tiplocCode": "WATFDJ",
    "lat": 51.6639446,
    "long": -0.3961114
  },
  {
    "stationName": "Bourne End Jn (Herts)",
    "crsCode": "XOE",
    "tiplocCode": "BONENDJ",
    "lat": 0.0,
    "long": 0.0
  },
  {
    "stationName": "Watford North",
    "crsCode": "WFN",
    "tiplocCode": "WATFDN",
    "lat": 51.6750417,
    "long": -0.3902879
  },
  {
    "stationName": "Acton Central",
    "crsCode": "ACC",
    "tiplocCode": "ACTNCTL",
    "lat": 51.5087164,
    "long": -0.2628073
  },
  {
    "stationName": "Gospel Oak",
    "crsCode": "GPO",
    "tiplocCode": "GOSPLOK",
    "lat": 51.5554865,
    "long": -0.151577
  },
  {
    "stationName": "Hampstead Heath",
    "crsCode": "HDH",
    "tiplocCode": "HMPSTDH",
    "lat": 51.5552396,
    "long": -0.1653912
  },
  {
    "stationName": "Kilburn High Road",
    "crsCode": "KBN",
    "tiplocCode": "KLBRNHR",
    "lat": 51.5377475,
    "long": -0.1913533
  },
  {
    "stationName": "Queen'S Park (Greater London)",
    "crsCode": "QPW",
    "tiplocCode": "QPRK",
    "lat": 0.0,
    "long": 0.0
  },
  {
    "stationName": "West Hampstead",
    "crsCode": "WHD",
    "tiplocCode": "WHMDSTD",
    "lat": 51.5473011,
    "long": -0.1920126
  },
  {
    "stationName": "North Wembley",
    "crsCode": "NWB",
    "tiplocCode": "NWEMBLY",
    "lat": 51.5624017,
    "long": -0.3038698
  },
  {
    "stationName": "Wembley Central",
    "crsCode": "WMB",
    "tiplocCode": "WMBY",
    "lat": 51.5523278,
    "long": -0.2966751
  },
  {
    "stationName": "Chs",
    "crsCode": "XWF",
    "tiplocCode": "WMBYICD",
    "lat": 0.0,
    "long": 0.0
  },
  {
    "stationName": "Willesden Prdc",
    "crsCode": "XRN",
    "tiplocCode": "WLSDRMT",
    "lat": 0.0,
    "long": 0.0
  },
  {
    "stationName": "Willesden No 7",
    "crsCode": "XXW",
    "tiplocCode": "WLSDNN7",
    "lat": 0.0,
    "long": 0.0
  },
  {
    "stationName": "Dalston Kingsland",
    "crsCode": "DLK",
    "tiplocCode": "DALSKLD",
    "lat": 51.5481908,
    "long": -0.0760535
  },
  {
    "stationName": "Apsley",
    "crsCode": "APS",
    "tiplocCode": "APSLEY",
    "lat": 51.732365,
    "long": -0.4629888
  },
  {
    "stationName": "Headstone Lane",
    "crsCode": "HDL",
    "tiplocCode": "HEDSTNL",
    "lat": 51.6025533,
    "long": -0.3569524
  },
  {
    "stationName": "Brondesbury",
    "crsCode": "BSY",
    "tiplocCode": "BRBY",
    "lat": 51.5450493,
    "long": -0.2025961
  },
  {
    "stationName": "Brondesbury Park",
    "crsCode": "BSP",
    "tiplocCode": "BRBYPK",
    "lat": 51.5405138,
    "long": -0.2103359
  },
  {
    "stationName": "Caledonian Road & Barnsbury",
    "crsCode": "CIR",
    "tiplocCode": "CLDNNRB",
    "lat": 51.5435462,
    "long": -0.1148864
  },
  {
    "stationName": "Camden Road London",
    "crsCode": "CMD",
    "tiplocCode": "CMDNRD",
    "lat": 0.0,
    "long": 0.0
  },
  {
    "stationName": "Canonbury",
    "crsCode": "CNN",
    "tiplocCode": "CNNB",
    "lat": 51.5485632,
    "long": -0.0930239
  },
  {
    "stationName": "Canonbury Ell",
    "crsCode": "XIC",
    "tiplocCode": "CNNBELL",
    "lat": 0.0,
    "long": 0.0
  },
  {
    "stationName": "Canonbury West Jn",
    "crsCode": "XJC",
    "tiplocCode": "CNNBYWJ",
    "lat": 0.0,
    "long": 0.0
  },
  {
    "stationName": "Carpenders Park",
    "crsCode": "CPK",
    "tiplocCode": "CRPNDPK",
    "lat": 51.6279135,
    "long": -0.3855109
  },
  {
    "stationName": "Dalston Junction",
    "crsCode": "DLJ",
    "tiplocCode": "DALS",
    "lat": 51.5452841,
    "long": -0.074968
  },
  {
    "stationName": "Dalston Junction",
    "crsCode": "XJD",
    "tiplocCode": "",
    "lat": 51.5452841,
    "long": -0.074968
  },
  {
    "stationName": "London Euston",
    "crsCode": "EUS",
    "tiplocCode": "EUSTON",
    "lat": 51.528313,
    "long": -0.134545
  },
  {
    "stationName": "Up Carriage Shed",
    "crsCode": "XEU",
    "tiplocCode": "EUSTUCS",
    "lat": 0.0,
    "long": 0.0
  },
  {
    "stationName": "Carmd(Carriage Engineering)",
    "crsCode": "XEN",
    "tiplocCode": "EUSTRES",
    "lat": 0.0,
    "long": 0.0
  },
  {
    "stationName": "Finchley Road & Frognal",
    "crsCode": "FNY",
    "tiplocCode": "FNCHLYR",
    "lat": 51.5501046,
    "long": -0.1835754
  },
  {
    "stationName": "Kensal Green",
    "crsCode": "KNL",
    "tiplocCode": "KENSLG",
    "lat": 51.5306063,
    "long": -0.2244449
  },
  {
    "stationName": "Kensal Rise",
    "crsCode": "KNR",
    "tiplocCode": "KENR",
    "lat": 51.5344634,
    "long": -0.2200978
  },
  {
    "stationName": "Kentish Town West",
    "crsCode": "KTW",
    "tiplocCode": "KNTSHTW",
    "lat": 51.5469937,
    "long": -0.1467554
  },
  {
    "stationName": "Primrose Hill",
    "crsCode": "PRM",
    "tiplocCode": "PRIMRSH",
    "lat": 0.0,
    "long": 0.0
  },
  {
    "stationName": "South Hampstead",
    "crsCode": "SOH",
    "tiplocCode": "SHMPSTD",
    "lat": 51.5414337,
    "long": -0.1788007
  },
  {
    "stationName": "South Acton",
    "crsCode": "SAT",
    "tiplocCode": "SACTON",
    "lat": 51.4997225,
    "long": -0.2698979
  },
  {
    "stationName": "South Kenton",
    "crsCode": "SOK",
    "tiplocCode": "SKENTON",
    "lat": 51.5703076,
    "long": -0.3085107
  },
  {
    "stationName": "Stonebridge Park",
    "crsCode": "SBP",
    "tiplocCode": "STNBGPK",
    "lat": 51.5441099,
    "long": -0.2762285
  },
  {
    "stationName": "Watford High Street",
    "crsCode": "WFH",
    "tiplocCode": "WATFDHS",
    "lat": 51.6522296,
    "long": -0.3924982
  },
  {
    "stationName": "Watford West",
    "crsCode": "WFW",
    "tiplocCode": "WATFDW",
    "lat": 0.0,
    "long": 0.0
  },
  {
    "stationName": "Willesden Junction",
    "crsCode": "WIJ",
    "tiplocCode": "WLSD",
    "lat": 51.5321956,
    "long": -0.2435041
  },
  {
    "stationName": "South Western Rs",
    "crsCode": "XWS",
    "tiplocCode": "WLSDSWS",
    "lat": 0.0,
    "long": 0.0
  },
  {
    "stationName": "West London Jn",
    "crsCode": "XWI",
    "tiplocCode": "WLSDWLJ",
    "lat": 0.0,
    "long": 0.0
  },
  {
    "stationName": "Mitre Bridge Junction",
    "crsCode": "XMB",
    "tiplocCode": "MTRBDGJ",
    "lat": 0.0,
    "long": 0.0
  },
  {
    "stationName": "Kensal Green Jn",
    "crsCode": "XKG",
    "tiplocCode": "KENSLGJ",
    "lat": 0.0,
    "long": 0.0
  },
  {
    "stationName": "Willesden Junction Low Level",
    "crsCode": "WJL",
    "tiplocCode": "WLSDNJL",
    "lat": 0.0,
    "long": 0.0
  },
  {
    "stationName": "Willesden Junction High Level",
    "crsCode": "WJH",
    "tiplocCode": "WLSDJHL",
    "lat": 0.0,
    "long": 0.0
  },
  {
    "stationName": "Great Missenden",
    "crsCode": "GMN",
    "tiplocCode": "GTMSNDN",
    "lat": 51.7033896,
    "long": -0.7092458
  },
  {
    "stationName": "Wendover",
    "crsCode": "WND",
    "tiplocCode": "WENDOVR",
    "lat": 51.7618168,
    "long": -0.7476905
  },
  {
    "stationName": "Stoke Mandeville",
    "crsCode": "SKM",
    "tiplocCode": "STKM",
    "lat": 51.7878849,
    "long": -0.7843417
  },
  {
    "stationName": "Balgray",
    "crsCode": "BGY",
    "tiplocCode": "BLGRY",
    "lat": 0.0,
    "long": 0.0
  },
  {
    "stationName": "Marylebone London",
    "crsCode": "MYB",
    "tiplocCode": "MARYLBN",
    "lat": 0.0,
    "long": 0.0
  },
  {
    "stationName": "South Junction Signal Box",
    "crsCode": "XNJ",
    "tiplocCode": "NEASDSJ",
    "lat": 0.0,
    "long": 0.0
  },
  {
    "stationName": "Northolt Park",
    "crsCode": "NLT",
    "tiplocCode": "NTHOLTP",
    "lat": 51.5575208,
    "long": -0.3592754
  },
  {
    "stationName": "Sudbury & Harrow Road",
    "crsCode": "SUD",
    "tiplocCode": "SDBRYHR",
    "lat": 51.5543352,
    "long": -0.3160599
  },
  {
    "stationName": "Sudbury Hill",
    "crsCode": "SDH",
    "tiplocCode": "SDBRYHH",
    "lat": 51.5568815,
    "long": -0.3362525
  },
  {
    "stationName": "Aylesbury",
    "crsCode": "AYS",
    "tiplocCode": "AYLSBRY",
    "lat": 51.8134286,
    "long": -0.8143149
  },
  {
    "stationName": "Quainton Road",
    "crsCode": "QRD",
    "tiplocCode": "QUNTRD",
    "lat": 51.8644264,
    "long": -0.9289896
  },
  {
    "stationName": "Wembley Stadium",
    "crsCode": "WCX",
    "tiplocCode": "WEMBLSM",
    "lat": 51.5542489,
    "long": -0.2847664
  },
  {
    "stationName": "Wembley Lmd",
    "crsCode": "XWY",
    "tiplocCode": "WEMBLMD",
    "lat": 0.0,
    "long": 0.0
  },
  {
    "stationName": "Bedford St Johns",
    "crsCode": "BSJ",
    "tiplocCode": "BESJOHN",
    "lat": 52.1293364,
    "long": -0.4676146
  },
  {
    "stationName": "Bedford Midland",
    "crsCode": "BDM",
    "tiplocCode": "BEDFDM",
    "lat": 0.0,
    "long": 0.0
  },
  {
    "stationName": "Bedford Bus Station",
    "crsCode": "XDW",
    "tiplocCode": "BEDFBUS",
    "lat": 0.0,
    "long": 0.0
  },
  {
    "stationName": "Cricklewood",
    "crsCode": "CRI",
    "tiplocCode": "CRKLWD",
    "lat": 51.5587554,
    "long": -0.2129746
  },